site,mjd,lon,lat,ellh,zhd,zwd,ztd
ADAN,58849.0,35.343713346111116,37.003499327777774,60.5178,2.3155795491873614,0.08615807641271479,2.4017376256000764
ADN1,58849.0,35.34374212638889,37.00417502916667,60.8096,2.3155027470158207,0.08614733161508005,2.401650078630901
ADIY,58849.0,38.22967929944444,37.74585825888889,711.0972,2.142600517347491,0.06066677116309804,2.203267288510589
ADY1,58849.0,38.26123880194445,37.760579155277775,741.1756,2.134703901914438,0.059701216657465854,2.1944051185719036
AFYN,58849.0,30.56100326527778,38.738361811944436,1072.276,2.0485939368424204,0.05430456151342003,2.1028984983558403
AGRD,58849.0,43.03287470888889,39.71756164083334,1672.5848,1.903393357236612,0.03681809889515267,1.9402114561317647
AKDG,58849.0,35.871643538055565,39.660159732222226,1404.8163,1.96648239480007,0.04276231575899,2.00924471055906
AKD1,58849.0,35.871069648055546,39.660470830555546,1408.6832,1.9655390281336653,0.04267968354874399,2.0082187116824093
AKHR,58849.0,31.429742201388887,38.36927171444445,1046.3983,2.055423133979589,0.05513847164380403,2.110561605623393
AKLE,58849.0,38.948206747222216,36.71003653277778,385.2808,2.2261608415091447,0.07020165750763681,2.2963624990167815
AKSI,58849.0,31.78749680444445,37.04771597,1193.4362,2.0177932303825106,0.050039260011267225,2.0678324903937777
AKSR,58849.0,33.99814918166667,38.370389852222225,1005.7896,2.0663802205708093,0.05436322562285942,2.1207434461936687
ALNY,58849.0,31.98854416972223,36.55554557305555,62.8486,2.3131113891745247,0.09302840504339875,2.4061397942179235
AMAS,58849.0,35.849294715833345,40.66569066416667,443.6131,2.2115358205360187,0.06466877794600849,2.2762045984820274
AMA1,58849.0,35.809534228888886,40.65693418166666,458.5378,2.2075324529753675,0.06433269338585493,2.2718651463612223
ANMU,58849.0,32.865106364722216,36.069014603055564,39.6446,2.3189035839872387,0.09421544305258389,2.413119027039823
ANK2,58849.0,32.77534744,39.842806145833336,1296.0554,1.9925110542070263,0.046538965488375855,2.0390500196954022
ANRK,58849.0,32.84620184833334,39.85596459166667,1231.2783,2.0085411789181546,0.04803768287333601,2.0565788617914906
ANTE,58849.0,37.37360936611111,37.06496032805556,886.8833,2.095816114311634,0.05633009246251306,2.1521462067741473
ANTL,58849.0,30.66642457166667,36.88844856083333,88.7527,2.304995185725316,0.09103340061835571,2.3960285863436717
ARDH,58849.0,42.69906170222222,41.11126062194445,1834.0687,1.8627685807792447,0.03245892785950589,1.8952275086387507
ARPK,58849.0,38.487320009166666,39.040593081388884,1243.5036,2.0078880999176354,0.046151764661228716,2.054039864578864
ARTV,58849.0,41.818316306944446,41.175097286944435,662.3921,2.1555219652966966,0.0559394128465812,2.211461378143278
AYD1,58849.0,27.8378842725,37.840726428888885,101.8305,2.301541374503079,0.08898089451450486,2.390522269017584
AYVL,58849.0,26.68617784777777,39.31144246222222,54.2555,2.315892350279354,0.08982224371542388,2.4057145939947775
BALK,58849.0,27.893631236944444,39.63936512250001,202.4916,2.276163536425065,0.0813663525923056,2.357529889017371
BAL1,58849.0,27.89266047555555,39.62949798472222,196.9411,2.277698443740761,0.08160718185182578,2.3593056255925866
BAND,58849.0,27.9967112775,40.33122510555556,97.2344,2.3054956201613344,0.08376777243511004,2.3892633925964444
BAN1,58849.0,27.974945728611107,40.34865146444445,98.109,2.3052457608572867,0.08371884672445644,2.3889646075817432
BASK,58849.0,44.01730383277778,38.043443638055564,2312.2405,1.756713343288999,0.027047332991086807,1.7837606762800857
BAYB,58849.0,40.19143542361111,40.250150286111115,1709.0492,1.8935193232242524,0.035433696348519214,1.9289530195727715
BEYS,58849.0,31.74655044472223,37.67730099583333,1187.4602,2.019662689675155,0.05127575950099306,2.070938449176148
BILE,58849.0,29.977391880555558,40.14146042222223,584.326,2.1737927684141902,0.0658363655693081,2.2396291339834984
BING,58849.0,40.50078317138889,38.885452529166656,1183.5291,2.023103488870214,0.04812389107672065,2.0712273799469347
BIN1,58849.0,40.5027404275,38.897216830555564,1170.211,2.026503591794785,0.04847981652425027,2.0749834083190355
BOGZ,58849.0,35.255099929444434,39.19360868333333,1106.7392,2.0407900415612903,0.05046280361716056,2.0912528451784507
BOG1,58849.0,35.247097085833325,39.19333479277777,1118.227,2.0378855561128963,0.05016976661064957,2.088055322723546
BOLU,58849.0,31.602032685555557,40.73353960666667,789.2424,2.119841778387661,0.05849109949429013,2.1783328778819513
BOL1,58849.0,31.606489812222225,40.746410184444436,802.5026,2.1163873164912355,0.058117598206958374,2.174504914698194
BOYT,58849.0,34.79666032861111,41.461039670833344,404.6842,2.2198796498387936,0.0650636058708735,2.284943255709667
BTMN,58849.0,41.15448343027778,37.863601290277785,650.7873,2.1578246034194613,0.06202445107954559,2.219849054499007
BURS,58849.0,29.015229196944443,40.214251377777785,183.2849,2.2820668224853353,0.07971720988976379,2.361784032375099
CANA,58849.0,26.4143352025,40.111205126944455,141.172,2.292533558729982,0.08440021526693685,2.3769337739969187
CANK,58849.0,33.61038037222223,40.608575739444454,794.9424,2.1190645728703363,0.058544135891939714,2.177608708762276
CATK,58849.0,43.060692934722226,38.007344513333344,1527.9151,1.9384671896838757,0.042012907232510416,1.980480096916386
CAVD,58849.0,29.69016344916667,37.15636927083333,1130.4841,2.031654824766004,0.05238333509098288,2.084038159856987
CAV1,58849.0,29.68854743555556,37.15925801888889,1109.9943,2.0367382068505155,0.053005090489753416,2.0897432973402688
CAV2,58849.0,29.689246056944448,37.157089990277775,1128.4628,2.0321553113210302,0.05244470783256382,2.084600019153594
CESM,58849.0,26.372570265,38.30381589888889,52.4472,2.3147845799429954,0.09162729462769836,2.4064118745706935
CZRE,58849.0,42.187998243888885,37.328148091111125,417.4252,2.219759597067678,0.07135590422891938,2.291115501296597
CIHA,58849.0,32.92240568222222,38.65038676611111,1012.7128,2.06429140838949,0.05447556611219517,2.1187669745016855
CMLD,58849.0,32.474515216111115,40.49096622416667,1274.1594,1.9971320449261512,0.046685427897514994,2.043817472823666
CORU,58849.0,34.98220358138889,40.57041087777778,922.0965,2.085566295778324,0.053170996918214204,2.1387372926965385
CYLN,58849.0,40.053432699444436,36.85094627194445,394.788,2.2233960520356595,0.06908749516021871,2.292483547195878
DATC,58849.0,27.69183474361111,36.70857246111112,59.17,2.3097771850585858,0.09198846985975033,2.401765654918336
DEIR,58849.0,28.648404974722226,39.034850775,890.9131,2.093197403196939,0.05845498924119043,2.1516523924381294
DEI1,58849.0,28.66268656944445,39.050898043888886,974.4581,2.071944851922115,0.056048252837972795,2.1279931047600877
DENI,58849.0,29.092134164722218,37.76210177638889,471.0808,2.2027119651978313,0.07527584568524458,2.277987810883076
DNZ1,58849.0,29.04374140111111,37.77879908722222,537.9361,2.1847353861489687,0.0724381386293941,2.257173524778363
DLUC,58849.0,44.79747261694444,39.65510951861111,837.0657,2.1120344007955625,0.051413684636507286,2.1634480854320697
DIDI,58849.0,27.268660950555553,37.372130087777784,79.2684,2.306141396314531,0.0905564019769108,2.396697798291442
DINA,58849.0,30.166335914722218,38.06946334166667,917.9084,2.0870858289645287,0.05946990759662513,2.1465557365611536
DIPK,58849.0,34.19466429583333,35.536897014444435,155.2779,2.283944753280985,0.08515197925308916,2.369096732534074
DIVR,58849.0,38.103883784444456,39.39431797416667,1087.6045,2.0475793033126988,0.05018499771579069,2.0977643010284894
DIV1,58849.0,38.1194158,39.37187686555556,1072.8901,2.0513514597999563,0.050566866177007376,2.1019183259769636
DIYB,58849.0,40.18749263222221,37.954416830555566,773.6755,2.125731949950385,0.0577106495339179,2.183442599484303
EDIR,58849.0,26.551010272777773,41.67671157416667,98.1979,2.3059392229056646,0.08133177237040957,2.387270995276074
EKIZ,58849.0,37.18794046555555,38.05883177277777,1325.0423,1.987322838724009,0.04551575440418012,2.032838593128189
EKZ1,58849.0,37.18727368055555,38.05816525305557,1328.8748,1.9863781859364442,0.045423182970360666,2.031801368906805
ELAZ,58849.0,39.256465076666665,38.64467205333333,1027.4191,2.062139168651074,0.05129452976826426,2.1134336984193385
EMIR,58849.0,31.14402582666667,39.02218994,1057.6719,2.0523681180702513,0.05402676801361403,2.1063948860838653
EMR1,58849.0,31.00006469416667,39.02029899583333,1012.6311,2.063742454020886,0.055333493465173925,2.1190759474860603
ERGN,58849.0,39.75819282888889,38.26960403777777,987.8096,2.071312328313231,0.05204035182786659,2.123352680141098
ERZI,58849.0,39.506070502222215,39.745670600833336,1238.3736,2.0093328052924053,0.04589654493873013,2.0552293502311354
ERZ1,58849.0,39.506118460277776,39.74583746277777,1238.256,2.0093618776323083,0.04589872506749297,2.0552606026998013
ERZ2,58849.0,39.69703993472222,39.70785832305557,1437.6043,1.9599787943813292,0.04168076045529907,2.0016595548366283
ERZR,58849.0,41.255465694166666,39.905608304444435,1915.0094,1.845865014256192,0.032836210077497506,1.8787012243336896
ESKS,58849.0,30.463611866944444,39.745686321944454,850.7521,2.1046269739237706,0.05865375982822212,2.163280733751993
FASA,58849.0,37.484747905,41.045527145555546,40.9765,2.3210212850718737,0.07373355921597619,2.3947548442878497
FEEK,58849.0,35.912326426666674,37.81511508555555,600.2955,2.1721149073231745,0.0663853468263792,2.2385002541495536
FETH,58849.0,29.123773816111115,36.62620807055556,37.3266,2.3168737499370127,0.09644252689156352,2.413316276828576
FINI,58849.0,30.146409626944447,36.3022174675,36.3572,2.3154787261915732,0.09333012800781385,2.4088088541993873
GEME,58849.0,36.080844974722226,39.185131608333336,1214.7947,2.014223084072483,0.04780366414888617,2.062026748221369
GIRS,58849.0,38.388156842777775,40.92262907055555,81.2765,2.3108769665592237,0.07179851614624344,2.382675482705467
GODA,58849.0,25.903453170555554,40.19715683,101.2589,2.3035293497376337,0.0861163964073294,2.389645746144963
GUMU,58849.0,39.516172196666666,40.437072987777775,1248.5330000000001,2.0044707926970142,0.04292346683715409,2.047394259534168
GURU,58849.0,37.30786893138889,38.7173515575,1357.4395,1.9796506782504237,0.044781229147047304,2.0244319073974713
GYUR,58849.0,32.989468375555546,35.20124792638889,78.9818,2.3039889886605502,0.08938744072093094,2.393376429381481
HAKK,58849.0,43.73912818888889,37.57431627055556,1758.0393,1.8834814077093036,0.03759519171798652,1.92107659942729
HAK1,58849.0,43.734014227222225,37.57615342861111,1773.3105,1.8798742122164929,0.037255573979818685,1.9171297861963115
HALP,58849.0,34.18337524333333,37.44508057277777,1252.501,2.0041694815756506,0.04839031039236654,2.052559791968017
HARC,58849.0,29.152760284444447,39.677743656944436,712.5283,2.139967870269458,0.06310708769033402,2.203074957959792
HATA,58849.0,36.152749505,36.2082752325,137.8892,2.291310462225191,0.08235861411174787,2.373669076336939
HAT1,58849.0,36.15582107722222,36.200018265833336,132.3239,2.2928277745879595,0.08262918106653991,2.3754569556544993
HEND,58849.0,30.740748121944453,40.79499124416667,208.5337,2.274827630668016,0.07587964260960729,2.3507072732776235
HINI,58849.0,41.69578707194446,39.36878741805555,1742.6226,1.8870673037930894,0.03675526590289099,1.9238225696959803
HORS,58849.0,42.167326805277774,40.04164636111111,1592.3273,1.9225809062222634,0.03849598112629071,1.961076887348554
HYMN,58849.0,32.49571417222222,39.43472457583333,1261.5391,2.001466231153766,0.04779719616449713,2.0492634273182633
HYM1,58849.0,32.49525520388888,39.43708812694444,1240.3469,2.006715660902795,0.04830859508281853,2.0550242559856136
IGIR,58849.0,44.018251443611106,39.9292007475,884.2851,2.1008031214121416,0.05191020286011352,2.152713324272255
IGR1,58849.0,44.05374837194446,39.926443471388886,881.0018,2.1015974732344738,0.05186115279540099,2.1534586260298747
INEB,58849.0,33.76282383555556,41.979091618611115,98.4458,2.3031571562535635,0.07569004038678905,2.3788471966403524
INE1,58849.0,33.762860835277785,41.97900028805556,98.1481,2.303241150613107,0.07570053731873981,2.378941687931847
INE2,58849.0,33.7677733075,41.976968200833326,48.0414,2.317359048767147,0.07746930339738804,2.394828352164535
INE3,58849.0,33.76135067083333,41.97905228777778,62.6653,2.3132247881078785,0.07695463527692516,2.3901794233848035
IPSA,58849.0,26.379780585277782,40.917532141944434,49.2362,2.3191618679702435,0.08592980923929662,2.40509167720954
IPS1,58849.0,26.385506192777786,40.92146472027778,66.4949,2.314301851097347,0.08519942574540877,2.399501276842756
IPS2,58849.0,26.38429158138889,40.921480122777766,64.30199999999999,2.314919319321014,0.08529035177761203,2.400209671098626
ISPT,58849.0,30.56697776888889,37.78508936833333,1032.1306,2.0578972712686014,0.056165470404576735,2.114062741673178
ISTN,58849.0,28.831634081666675,40.99096174777778,77.0522,2.3106880190892065,0.0823487073510309,2.3930367264402372
IZMI,58849.0,27.08182221361111,38.394807905,74.935,2.3092320977026333,0.0894856086980201,2.3987177064006535
IZMT,58849.0,29.95093363,40.80197816333333,326.0741,2.2421091176499344,0.07232300325425806,2.3144321209041925
KAAS,58849.0,29.643158024999998,36.19839326638888,54.4486,2.310505447317854,0.09519705227107038,2.4057024995889242
KAMN,58849.0,33.22027138,37.193227216111104,1057.0068,2.052242784992152,0.053516210823436154,2.105758995815588
KAPN,58849.0,33.52692669833332,37.71466462083335,1039.5111,2.0573457632919676,0.05398440868842431,2.111330171980392
KAP1,58849.0,33.528278693333334,37.71441642944445,1034.4914,2.058617620996921,0.054130282532533866,2.112747903529455
KARB,58849.0,28.68277089388889,41.34711842138889,93.5867,2.3058782189413045,0.0816499451683615,2.387528164109666
KAYS,58849.0,35.524460878055564,38.708372088888886,1138.7758,2.0333565742260555,0.05034573910923749,2.083702313335293
KAY1,58849.0,35.503070220833344,38.71366367277777,1117.9267,2.038592471385472,0.050883368287531275,2.0894758396730033
KIKA,58849.0,27.672205611944445,39.105991361111116,241.2092,2.2648058942478677,0.08086592770986466,2.3456718219577324
KIRL,58849.0,27.21794899055556,41.73812180611111,280.6111,2.25472634066802,0.07426469402157879,2.3289910346895986
KIRS,58849.0,34.155487785,39.16462421666667,1063.64,2.051341153253075,0.0519563552710187,2.1032975085240935
KIS1,58849.0,34.163130851944445,39.14338055416667,1030.3007,2.0598238572534022,0.052854407406220556,2.112678264659623
KKAL,58849.0,33.51788380583333,39.84326516055556,794.5681,2.1201482895435118,0.05934295997401516,2.1794912495175267
KLIS,58849.0,37.112175696944455,36.70859996333333,681.9263,2.1478327502858545,0.062190919882312096,2.210023670168167
KLUU,58849.0,33.065363481388886,39.07910221916667,1052.3153,2.0540961080641433,0.05296661465729997,2.107062722721443
KNY1,58849.0,32.47635401138889,37.85939937194445,1084.6432,2.0458130223439155,0.053534875102187816,2.0993478974461035
KNYA,58849.0,32.5052336063889,38.02215187583333,1205.6816,2.015621553040412,0.050044831075095206,2.065666384115507
KRBK,58849.0,32.675926788611115,41.23162331833333,435.5431,2.212675475417478,0.0675453969184363,2.2802208723359145
KRS1,58849.0,43.09344334444446,40.588451581111116,1811.739,1.868952849532979,0.03300685759294565,1.9019597071259247
KRSU,58849.0,30.69119350611111,41.099315603055565,48.766000000000005,2.3184804884796884,0.08087448540787545,2.3993549738875637
KSTM,58849.0,33.775505109444445,41.37123244527777,835.3959,2.1062970157520042,0.055093291010836584,2.161390306762841
KURU,58849.0,32.717741548611116,41.84612521694444,74.4111,2.3098045268664564,0.0772648569422545,2.387069383808711
KUTA,58849.0,29.89885589194445,39.48086533138889,1076.3595,2.0468638485897936,0.052827789971840546,2.099691638561634
KUT1,58849.0,30.033640875000003,39.39415354194443,1027.3987,2.0593457014049235,0.05428819263830688,2.11363389404323
LEFK,58849.0,33.3529036286111,35.195046955277775,180.5037,2.276930415251711,0.08465196878561004,2.361582384037321
MALY,58849.0,38.21688926111111,38.33769465444445,985.8972,2.072720579142005,0.053117426436073666,2.125838005578079
MARA,58849.0,36.93113308638889,37.58075446861111,616.7711,2.1675156366896267,0.06519737775130562,2.2327130144409324
MAR1,58849.0,36.86149860944445,37.593375224166664,734.3754,2.1364313750739066,0.061372981001482176,2.197804356075389
MARD,58849.0,40.72828597444446,37.310500331111115,1064.1371,2.0500595077400443,0.04948726457983328,2.0995467723198775
MGOS,58849.0,33.90738760666667,35.14582049222222,49.7778,2.312116881046648,0.09117280373698587,2.403289684783634
MIDY,58849.0,41.357400975555564,37.41739928138889,977.7109,2.0716451445793105,0.051925309945830465,2.123570454525141
MALZ,58849.0,38.216889251944444,38.337694571388894,985.9102,2.072717235225087,0.05311707845958123,2.1258343136846682
MLZ1,58849.0,42.540571397777775,39.145901173611115,1571.7675,1.9281269356970208,0.0399912195272391,1.96811815522426
MRSI,58849.0,34.60259238861112,36.7810000175,40.4961,2.320433913391922,0.08927644921629681,2.409710362608219
MUGL,58849.0,28.36443998138889,37.21635825111112,713.6718,2.1368272199130667,0.06470524609756682,2.2015324660106335
MUG1,58849.0,28.355676189166672,37.21429318861111,693.2688,2.142088628070534,0.06542004559977835,2.2075086736703122
MURA,58849.0,43.763118974166666,38.990099946944454,1736.3481,1.8884526189887054,0.03636457717283208,1.9248171961615375
MUR1,58849.0,43.762565616111104,38.9919318175,1734.0357,1.8890015962647244,0.036406349499443234,1.9254079457641677
MUUS,58849.0,41.50216087083333,38.79323737805555,1287.6836,1.997158260950946,0.04648862798617384,2.0436468889371198
MUS1,58849.0,41.499188175,38.74353990777778,1379.6336,1.9742017602905237,0.04418256486685827,2.018384325157382
NAHA,58849.0,31.33208772944445,40.173303517222216,705.515,2.1423057954467564,0.06171819130096387,2.2040239867477203
NEVS,58849.0,34.70294570166667,38.61656502194445,1292.4533,1.9946942793210836,0.046500860233695304,2.041195139554779
NEV1,58849.0,34.710771300833336,38.63146202638889,1234.5227,2.009035901641053,0.04791665637777208,2.056952558018825
NIGD,58849.0,34.67943657888889,37.95876982944445,1252.3261,2.0044464053449866,0.04803702326255507,2.0524834286075415
NSYB,58849.0,41.21726320194445,37.067020677222224,506.7374,2.193380803554235,0.06552119979370356,2.258902003347939
NSY1,58849.0,41.216107820555564,37.07872594583332,493.0643,2.19704822964211,0.06597557701550506,2.263023806657615
ONIY,58849.0,36.253857278333335,37.10219246777777,127.1919,2.298414572044944,0.08282238358705016,2.3812369556319943
OZAL,58849.0,43.98867900555555,38.65731246055555,2037.2506,1.8183544882723341,0.03118654042847563,1.8495410287008098
POSF,58849.0,42.72755347972223,41.509056945277784,1566.9899,1.9251203809103639,0.03621878756511933,1.9613391684754833
POZA,58849.0,34.87166073833333,37.42211241083333,826.4008,2.1119967215269853,0.06063839664942945,2.1726351181764145
RDIY,58849.0,37.335666870833336,40.38523471444445,539.8161,2.1869240968341748,0.06042030329237355,2.2473444001265483
RHIY,58849.0,38.770799087222215,39.90611182472223,1626.8571,1.913418194961781,0.03732615299125457,1.9507443479530355
RZE1,58849.0,40.493092049444435,41.03689591555555,70.699,2.3157293083045642,0.07201874626419597,2.3877480545687604
SALH,58849.0,28.12354599888889,38.48308977222222,156.1684,2.2884351133506193,0.08551533966987697,2.3739504530204965
SAMN,58849.0,36.25564263333333,41.34400171666666,33.6775,2.321566181998797,0.07453640451659478,2.3961025865153918
SAM1,58849.0,36.33376249222223,41.30849344638889,53.3696,2.3161499813518405,0.0739303464040441,2.3900803277558844
SARV,58849.0,32.617255334444444,36.696651574166665,1569.9566,1.9264081420404764,0.03951567886851536,1.9659238209089918
SARY,58849.0,27.916434325,41.4429682575,198.8697,2.2770462649108545,0.07799533712750739,2.3550416020383618
SEMD,58849.0,44.57388782694446,37.30514390305555,1422.9374,1.9636556349984002,0.045560224181014186,2.0092158591794145
SEM1,58849.0,44.57282309166667,37.30591342944445,1413.7849,1.9659029168751463,0.04580522932452075,2.011708146199667
SIHI,58849.0,31.53529230055556,39.4452831775,1118.1271,2.037128738379233,0.05172922015552536,2.088857958534758
SIH1,58849.0,31.536250050833328,39.44652019916666,1127.2835,2.0348327087391844,0.051498604173167824,2.0863313129123524
SILF,58849.0,33.936401391666664,36.381889953611115,52.7544,2.3153065313505516,0.08959490740619236,2.404901438756744
SINP,58849.0,35.153944780277776,42.03023426694445,54.5762,2.3142120240728548,0.07530571825114152,2.389517742323996
SIRN,58849.0,42.45684325416667,37.525026291944435,1459.3128,1.9533390942797626,0.04173138921352092,1.9950704834932835
SIR1,58849.0,42.45550330611111,37.523696532222225,1441.6907,1.9575939349541547,0.042126262766540905,1.9997201977206955
SIRT,58849.0,41.93556965611111,37.93190677583333,916.6116,2.089563771443175,0.055677108205686686,2.145240879648862
SIVE,58849.0,39.329272303888885,37.752394393055546,830.8357,2.110568122932041,0.05602495826868804,2.1665930812007295
SIV1,58849.0,39.32167186611112,37.75287257,826.6642,2.1116547316655248,0.05614628863321162,2.1678010202987363
SIVS,58849.0,37.00249450888889,39.743698781388886,1325.4903,1.9863244065711165,0.04415069226250185,2.030475098833618
SLEE,58849.0,29.60068185555556,41.168729120277774,127.8157,2.296031874322062,0.07921293779740049,2.3752448121194627
SLVR,58849.0,28.24846734027777,41.07608006444445,64.3988,2.3144482042681958,0.08350049505733434,2.39794869932553
SSEH,58849.0,38.07489458166667,40.16247306055556,1200.9527,2.016635275231588,0.04517659097420967,2.061811866205798
SSE1,58849.0,38.105015735,40.16910805333333,1001.8530000000001,2.067020722334833,0.04950116946499945,2.1165218917998327
SUNL,58849.0,34.36891012638889,40.15397829916667,807.302,2.116218386729569,0.057615459133558665,2.1738338458631277
SUN1,58849.0,34.37668658111111,40.163566175,804.7366,2.116873690747967,0.057662351254391904,2.1745360420023587
SURF,58849.0,38.818022698055564,37.191846237777774,680.7649,2.1487579672889905,0.060722120871367136,2.209480088160358
TEKR,58849.0,27.49649646027778,40.958334589444455,48.7875,2.3192402039401956,0.08503110906127101,2.4042713130014666
TNCE,58849.0,39.545632595,39.009672883888896,1019.1414,2.065144388196422,0.051931968936085135,2.1170763571325075
TNC1,58849.0,39.53489467222221,39.075341731111116,967.7081,2.0786327151114112,0.0533975139471051,2.1320302290585165
TOKA,58849.0,36.557139051111115,40.33104396527778,649.7065,2.1572789133443613,0.058857319044286344,2.2161362323886475
TOK1,58849.0,36.557467001388886,40.33098402694445,662.7152,2.1538236155082315,0.05850703915781668,2.212330654666048
TRBN,58849.0,39.71148925444445,41.005409409444454,85.3473,2.310306097758246,0.07176351272241262,2.382069610480659
TUFA,58849.0,36.220871685555565,38.26060212222223,1459.3785,1.9545724494481922,0.04263867073950909,1.9972111201877012
TUF1,58849.0,36.20844708944445,38.26054415694445,1504.7638,1.9435878092140402,0.04160326885944364,1.9851910780734838
TVAN,58849.0,42.29045979583333,38.52949228222222,1717.4999,1.892792166499106,0.03739541010487491,1.930187576603981
TVA1,58849.0,42.29078311805554,38.52964468472222,1718.0736,1.892656362738773,0.03738393326410905,1.930040296002882
TVA2,58849.0,42.27714920305557,38.51478674972222,1719.1773,1.8923814446737601,0.03735764180301111,1.9297390864767712
UDER,58849.0,41.54755094305556,40.53128318416667,1131.7813,2.036538831145757,0.04714383269479492,2.083682663840552
UDE1,58849.0,41.54778610611111,40.52995623944445,1141.6799,2.0340058842491042,0.046914904448566025,2.08092078869767
USAK,58849.0,29.405220899999996,38.67921327972222,965.9917,2.074621114919576,0.05676666858979797,2.131387783509374
USK1,58849.0,29.39878004972223,38.67902649416665,981.3058,2.0707158914906447,0.056313489513552965,2.127029381004198
VAAN,58849.0,43.28291502861111,38.56535095861111,1695.7476,1.8986286668076453,0.038388204893083706,1.937016871700729
VAN1,58849.0,43.345811878611116,38.46933702611111,1693.3038,1.8992845385259725,0.03860187161104885,1.9378864101370212
VEZI,58849.0,35.46665648388889,41.13800042333333,372.9831,2.2291253997081313,0.06592941939510011,2.2950548191032314
VIRA,58849.0,39.75115866416667,37.233666042777784,596.4266,2.170503914778298,0.06259787868191002,2.233101793460208
VIR1,58849.0,39.751699275,37.23055905555556,602.5419999999999,2.1688821973191366,0.062408207563818534,2.231290404882955
VIR2,58849.0,39.74872791527777,37.22553034333333,599.559,2.169663710321739,0.0625021137496107,2.23216582407135
YENC,58849.0,27.241705869444445,39.935939088055555,333.8638,2.2398388258133934,0.07639891744763785,2.3162377432610315
YEN1,58849.0,27.258898433888888,39.92897965,334.0747,2.2397836951998533,0.07639154074426979,2.3161752359441232
YLOV,58849.0,29.262347246388885,40.64907389222222,64.4596,2.3144864591581986,0.08231498715233487,2.3968014463105334
YOZT,58849.0,34.81593101694445,39.82401790027778,1343.1443,1.9810686074729922,0.04434081996234812,2.0254094274353402
YOZ1,58849.0,34.84472677222223,39.83144403888889,1455.681,1.9536927396961008,0.04193259649615541,1.9956253361922562
YUNK,58849.0,31.726276115000005,38.820465464722226,1192.0592,2.0188993417873595,0.050463648659441536,2.069362990446801
YUN1,58849.0,31.731732529444447,38.816163016944444,1150.4153,2.0292895561241364,0.051543964409986515,2.080833520534123
ZONG,58849.0,31.778170604166665,41.44952560277777,168.1403,2.2844090632067724,0.0750942575474382,2.3595033207542104
ADAN,58849.041666666664,35.343713346111116,37.003499327777774,60.5178,2.315575898851699,0.0861505104031838,2.4017264092548825
ADN1,58849.041666666664,35.34374212638889,37.00417502916667,60.8096,2.31549909593577,0.08613976569833762,2.401638861634108
ADIY,58849.041666666664,38.22967929944444,37.74585825888889,711.0972,2.1425953525382093,0.06066047491894161,2.2032558274571508
ADY1,58849.041666666664,38.26123880194445,37.760579155277775,741.1756,2.134698678457687,0.05969496318001945,2.194393641637707
AFYN,58849.041666666664,30.56100326527778,38.738361811944436,1072.276,2.0485878687375956,0.05429745235071831,2.102885321088314
AGRD,58849.041666666664,43.03287470888889,39.71756164083334,1672.5848,1.9033866679871045,0.03681401452682367,1.9402006825139282
AKDG,58849.041666666664,35.871643538055565,39.660159732222226,1404.8163,1.9664758523307575,0.04275718579147991,2.0092330381222374
AKD1,58849.041666666664,35.871069648055546,39.660470830555546,1408.6832,1.9655324797764762,0.04267456098521837,2.0082070407616945
AKHR,58849.041666666664,31.429742201388887,38.36927171444445,1046.3983,2.055417115936443,0.05513077197464994,2.110547887911093
AKLE,58849.041666666664,38.948206747222216,36.71003653277778,385.2808,2.2261563006769993,0.07019516921616484,2.296351469893164
AKSI,58849.041666666664,31.78749680444445,37.04771597,1193.4362,2.017787275638176,0.050032077959717106,2.0678193535978933
AKSR,58849.041666666664,33.99814918166667,38.370389852222225,1005.7896,2.066374356296413,0.0543555387789774,2.1207298950753906
ALNY,58849.041666666664,31.98854416972223,36.55554557305555,62.8486,2.313107423922913,0.09301715141397247,2.4061245753368854
AMAS,58849.041666666664,35.849294715833345,40.66569066416667,443.6131,2.211530826845752,0.06466252973255628,2.2761933565783083
AMA1,58849.041666666664,35.809534228888886,40.65693418166666,458.5378,2.207527422086653,0.06432643183072212,2.271853853917375
ANMU,58849.041666666664,32.865106364722216,36.069014603055564,39.6446,2.3188998887080827,0.09420465245503416,2.4131045411631167
ANK2,58849.041666666664,32.77534744,39.842806145833336,1296.0554,1.9925045648019606,0.046532838900678844,2.0390374037026393
ANRK,58849.041666666664,32.84620184833334,39.85596459166667,1231.2783,2.0085347716356328,0.04803138891923651,2.056566160554869
ANTE,58849.041666666664,37.37360936611111,37.06496032805556,886.8833,2.0958107214629953,0.05632466909157927,2.1521353905545744
ANTL,58849.041666666664,30.66642457166667,36.88844856083333,88.7527,2.3049909670374897,0.09102210166726359,2.3960130687047534
ARDH,58849.041666666664,42.69906170222222,41.11126062194445,1834.0687,1.8627616731650432,0.03245678392981932,1.8952184570948625
ARPK,58849.041666666664,38.487320009166666,39.040593081388884,1243.5036,2.0078820368755923,0.04614745253554354,2.054029489411136
ARTV,58849.041666666664,41.818316306944446,41.175097286944435,662.3921,2.155516929390839,0.0559364137107486,2.2114533431015877
AYD1,58849.041666666664,27.8378842725,37.840726428888885,101.8305,2.301537059998738,0.0889678676603618,2.3905049276590997
AYVL,58849.041666666664,26.68617784777777,39.31144246222222,54.2555,2.315888371943002,0.08980846979686258,2.4056968417398643
BALK,58849.041666666664,27.893631236944444,39.63936512250001,202.4916,2.276159275985781,0.08135527119561438,2.3575145471813954
BAL1,58849.041666666664,27.89266047555555,39.62949798472222,196.9411,2.277694192536454,0.08159607443064866,2.3592902669671028
BAND,58849.041666666664,27.9967112775,40.33122510555556,97.2344,2.305491659592228,0.08375644307555805,2.389248102667786
BAN1,58849.041666666664,27.974945728611107,40.34865146444445,98.109,2.305241801695424,0.08370747865457906,2.388949280350003
BASK,58849.041666666664,44.01730383277778,38.043443638055564,2312.2405,1.7567061162423485,0.027043247754631378,1.78374936399698
BAYB,58849.041666666664,40.19143542361111,40.250150286111115,1709.0492,1.8935125110429194,0.0354322630942873,1.9289447741372068
BEYS,58849.041666666664,31.74655044472223,37.67730099583333,1187.4602,2.0196565915631397,0.051268412141638055,2.0709250037047777
BILE,58849.041666666664,29.977391880555558,40.14146042222223,584.326,2.1737876593406753,0.06582872635424784,2.239616385694923
BING,58849.041666666664,40.50078317138889,38.885452529166656,1183.5291,2.023097482845844,0.04811805477415076,2.0712155376199948
BIN1,58849.041666666664,40.5027404275,38.897216830555564,1170.211,2.026497607104723,0.04847397243384466,2.0749715795385675
BOGZ,58849.041666666664,35.255099929444434,39.19360868333333,1106.7392,2.0407839689344702,0.05045631066229312,2.0912402795967635
BOG1,58849.041666666664,35.247097085833325,39.19333479277777,1118.227,2.0378794650060645,0.050163300840052286,2.088042765846117
BOLU,58849.041666666664,31.602032685555557,40.73353960666667,789.2424,2.119836143374525,0.058484477836587334,2.178320621211112
BOL1,58849.041666666664,31.606489812222225,40.746410184444436,802.5026,2.11638166016476,0.05811101816511846,2.1744926783298784
BOYT,58849.041666666664,34.79666032861111,41.461039670833344,404.6842,2.2198746261251574,0.0650567055013127,2.28493133162647
BTMN,58849.041666666664,41.15448343027778,37.863601290277785,650.7873,2.1578195250458148,0.062015487859309305,2.219835012905124
BURS,58849.041666666664,29.015229196944443,40.214251377777785,183.2849,2.28206261892227,0.07970771722341552,2.3617703361456854
CANA,58849.041666666664,26.4143352025,40.111205126944455,141.172,2.292529550745225,0.08438672814691796,2.376916278892143
CANK,58849.041666666664,33.61038037222223,40.608575739444454,794.9424,2.1190587703670456,0.058536977373778984,2.1775957477408245
CATK,58849.041666666664,43.060692934722226,38.007344513333344,1527.9151,1.9384608531000074,0.04200643489612959,1.980467287996137
CAVD,58849.041666666664,29.69016344916667,37.15636927083333,1130.4841,2.031648908661898,0.05237518422932577,2.0840240928912235
CAV1,58849.041666666664,29.68854743555556,37.15925801888889,1109.9943,2.036732316823519,0.05299686640660965,2.089729183230129
CAV2,58849.041666666664,29.689246056944448,37.157089990277775,1128.4628,2.032149397684639,0.052436549578635624,2.0845859472632746
CESM,58849.041666666664,26.372570265,38.30381589888889,52.4472,2.3147805316866883,0.09161276323986957,2.406393294926558
CZRE,58849.041666666664,42.187998243888885,37.328148091111125,417.4252,2.219755148329692,0.07134612408095331,2.291101272410645
CIHA,58849.041666666664,32.92240568222222,38.65038676611111,1012.7128,2.064285418167177,0.05446780662516634,2.1187532247923433
CMLD,58849.041666666664,32.474515216111115,40.49096622416667,1274.1594,1.9971255522859626,0.046679552797261624,2.043805105083224
CORU,58849.041666666664,34.98220358138889,40.57041087777778,922.0965,2.0855603659443966,0.053164993381026995,2.1387253593254236
CYLN,58849.041666666664,40.053432699444436,36.85094627194445,394.788,2.2233914740090928,0.0690797936200362,2.292471267629129
DATC,58849.041666666664,27.69183474361111,36.70857246111112,59.17,2.3097730256329085,0.09197402254933044,2.401747048182239
DEIR,58849.041666666664,28.648404974722226,39.034850775,890.9131,2.0931917993024873,0.058447026449417294,2.151638825751905
DEI1,58849.041666666664,28.66268656944445,39.050898043888886,974.4581,2.0719391179906097,0.056040555073985136,2.127979673064595
DENI,58849.041666666664,29.092134164722218,37.76210177638889,471.0808,2.2027069675205735,0.07526552040890089,2.2779724879294743
DNZ1,58849.041666666664,29.04374140111111,37.77879908722222,537.9361,2.184730284756923,0.0724280957874659,2.257158380544389
DLUC,58849.041666666664,44.79747261694444,39.65510951861111,837.0657,2.1120289850841556,0.05140367184275786,2.1634326569269136
DIDI,58849.041666666664,27.268660950555553,37.372130087777784,79.2684,2.306137182317745,0.09054199835709562,2.3966791806748406
DINA,58849.041666666664,30.166335914722218,38.06946334166667,917.9084,2.0870800640719094,0.05946176552950025,2.14654182960141
DIPK,58849.041666666664,34.19466429583333,35.536897014444435,155.2779,2.2839410899985206,0.08514280112016405,2.369083891118685
DIVR,58849.041666666664,38.103883784444456,39.39431797416667,1087.6045,2.04757352469396,0.050180818084906154,2.0977543427788663
DIV1,58849.041666666664,38.1194158,39.37187686555556,1072.8901,2.0513457086271503,0.050562637193027345,2.1019083458201777
DIYB,58849.041666666664,40.18749263222221,37.954416830555566,773.6755,2.125726618445495,0.05770286637971105,2.183429484825206
EDIR,58849.041666666664,26.551010272777773,41.67671157416667,98.1979,2.3059353794714283,0.08131860189546049,2.387253981366889
EKIZ,58849.041666666664,37.18794046555555,38.05883177277777,1325.0423,1.9873166254972885,0.045510389320420376,2.032827014817709
EKZ1,58849.041666666664,37.18727368055555,38.05816525305557,1328.8748,1.9863719664012291,0.045417824458011215,2.03178979085924
ELAZ,58849.041666666664,39.256465076666665,38.64467205333333,1027.4191,2.062133423422797,0.051288543740425026,2.113421967163222
EMIR,58849.041666666664,31.14402582666667,39.02218994,1057.6719,2.0523620559195725,0.05401966894036994,2.1063817248599426
EMR1,58849.041666666664,31.00006469416667,39.02029899583333,1012.6311,2.063736457557615,0.05532630313161381,2.119062760689229
ERGN,58849.041666666664,39.75819282888889,38.26960403777777,987.8096,2.0713066327446183,0.05203350775279361,2.123340140497412
ERZI,58849.041666666664,39.506070502222215,39.745670600833336,1238.3736,2.0093267225302327,0.04589377825989964,2.0552205007901323
ERZ1,58849.041666666664,39.506118460277776,39.74583746277777,1238.256,2.009355795074817,0.04589595850945152,2.0552517535842685
ERZ2,58849.041666666664,39.69703993472222,39.70785832305557,1437.6043,1.9599723865824208,0.04167804822069781,2.0016504348031186
ERZR,58849.041666666664,41.255465694166666,39.905608304444435,1915.0094,1.8458579437360751,0.03283383917689978,1.878691782912975
ESKS,58849.041666666664,30.463611866944444,39.745686321944454,850.7521,2.1046212908788124,0.05864684011098169,2.163268130989794
FASA,58849.041666666664,37.484747905,41.045527145555546,40.9765,2.3210173183406093,0.07372791693036716,2.3947452352709764
FEEK,58849.041666666664,35.912326426666674,37.81511508555555,600.2955,2.172110017206365,0.06637828541528612,2.2384883026216515
FETH,58849.041666666664,29.123773816111115,36.62620807055556,37.3266,2.316869569927152,0.09642860264831443,2.4132981725754665
FINI,58849.041666666664,30.146409626944447,36.3022174675,36.3572,2.3154746826340897,0.0933177737033974,2.408792456337487
GEME,58849.041666666664,36.080844974722226,39.185131608333336,1214.7947,2.0142169141698973,0.04779784796906784,2.0620147621389653
GIRS,58849.041666666664,38.388156842777775,40.92262907055555,81.2765,2.3108731605921857,0.0717935432201934,2.382666703812379
GODA,58849.041666666664,25.903453170555554,40.19715683,101.2589,2.303525440942029,0.08610229021930428,2.3896277311613336
GUMU,58849.041666666664,39.516172196666666,40.437072987777775,1248.5330000000001,2.004464709852449,0.042922004052338425,2.047386713904787
GURU,58849.041666666664,37.30786893138889,38.7173515575,1357.4395,1.9796443857741857,0.044776133160319614,2.0244205189345053
GYUR,58849.041666666664,32.989468375555546,35.20124792638889,78.9818,2.3039854597332106,0.08937670430893516,2.393362164042146
HAKK,58849.041666666664,43.73912818888889,37.57431627055556,1758.0393,1.883474843762219,0.03758939831042156,1.9210642420726407
HAK1,58849.041666666664,43.734014227222225,37.57615342861111,1773.3105,1.8798676296242895,0.037249830300971225,1.9171174599252607
HALP,58849.041666666664,34.18337524333333,37.44508057277777,1252.501,2.004163402238852,0.04838333808028339,2.0525467403191353
HARC,58849.041666666664,29.152760284444447,39.677743656944436,712.5283,2.1399625619773133,0.06309918547187872,2.203061747449192
HATA,58849.041666666664,36.152749505,36.2082752325,137.8892,2.291306796571655,0.08235272780078805,2.3736595243724428
HAT1,58849.041666666664,36.15582107722222,36.200018265833336,132.3239,2.2928241235484053,0.08262327372930528,2.3754473972777106
HEND,58849.041666666664,30.740748121944453,40.79499124416667,208.5337,2.2748232228054484,0.07587158767956204,2.3506948104850105
HINI,58849.041666666664,41.69578707194446,39.36878741805555,1742.6226,1.8870604750004425,0.036751246674144006,1.9238117216745865
HORS,58849.041666666664,42.167326805277774,40.04164636111111,1592.3273,1.9225742993645452,0.03849275054070211,1.9610670499052472
HYMN,58849.041666666664,32.49571417222222,39.43472457583333,1261.5391,2.0014598083822825,0.04779078443831939,2.0492505928206017
HYM1,58849.041666666664,32.49525520388888,39.43708812694444,1240.3469,2.006709263654626,0.048302125687021524,2.0550113893416473
IGIR,58849.041666666664,44.018251443611106,39.9292007475,884.2851,2.1007976003578746,0.051902057795663786,2.1526996581535385
IGR1,58849.041666666664,44.05374837194446,39.926443471388886,881.0018,2.1015919581443785,0.0518529165620667,2.1534448747064454
INEB,58849.041666666664,33.76282383555556,41.979091618611115,98.4458,2.303152830652676,0.07568189360234824,2.3788347242550243
INE1,58849.041666666664,33.762860835277785,41.97900028805556,98.1481,2.3032368256426223,0.07569238942411265,2.378929215066735
INE2,58849.041666666664,33.7677733075,41.976968200833326,48.0414,2.3173548310677266,0.07746097389655496,2.3948158049642814
INE3,58849.041666666664,33.76135067083333,41.97905228777778,62.6653,2.3132205394075136,0.07694635800381834,2.390166897411332
IPSA,58849.041666666664,26.379780585277782,40.917532141944434,49.2362,2.319158078396865,0.085915787920184,2.405073866317049
IPS1,58849.041666666664,26.385506192777786,40.92146472027778,66.4949,2.314298031502122,0.08518551968522844,2.3994835511873505
IPS2,58849.041666666664,26.38429158138889,40.921480122777766,64.30199999999999,2.314915503569364,0.0852764307893909,2.4001919343587548
ISPT,58849.041666666664,30.56697776888889,37.78508936833333,1032.1306,2.0578913774062917,0.05615752307871952,2.1140489004850114
ISTN,58849.041666666664,28.831634081666675,40.99096174777778,77.0522,2.310684095837509,0.08233873563355036,2.3930228314710593
IZMI,58849.041666666664,27.08182221361111,38.394807905,74.935,2.3092279249566987,0.08947201067936807,2.398699935636067
IZMT,58849.041666666664,29.95093363,40.80197816333333,326.0741,2.2421045843513303,0.07231490479831017,2.3144194891496404
KAAS,58849.041666666664,29.643158024999998,36.19839326638888,54.4486,2.3105013173422693,0.09518361118543421,2.4056849285277035
KAMN,58849.041666666664,33.22027138,37.193227216111104,1057.0068,2.0522370128471015,0.05350840061379876,2.1057454134609004
KAPN,58849.041666666664,33.52692669833332,37.71466462083335,1039.5111,2.057339945562114,0.05397636818119484,2.111316313743309
KAP1,58849.041666666664,33.528278693333334,37.71441642944445,1034.4914,2.058611810845271,0.054122226407676596,2.1127340372529475
KARB,58849.041666666664,28.68277089388889,41.34711842138889,93.5867,2.305874277718584,0.08163991913433875,2.3875141968529228
KAYS,58849.041666666664,35.524460878055564,38.708372088888886,1138.7758,2.033350550884995,0.05033891304860657,2.0836894639336014
KAY1,58849.041666666664,35.503070220833344,38.71366367277777,1117.9267,2.0385864788492074,0.05087647516078891,2.0894629540099965
KIKA,58849.041666666664,27.672205611944445,39.105991361111116,241.2092,2.2648014828357037,0.08085441035319717,2.345655893188901
KIRL,58849.041666666664,27.21794899055556,41.73812180611111,280.6111,2.2547221379322098,0.07425383635724388,2.328975974289454
KIRS,58849.041666666664,34.155487785,39.16462421666667,1063.64,2.051335077421389,0.05194942271336043,2.1032845001347495
KIS1,58849.041666666664,34.163130851944445,39.14338055416667,1030.3007,2.0598178323236236,0.05284736474220953,2.1126651970658332
KKAL,58849.041666666664,33.51788380583333,39.84326516055556,794.5681,2.120142489761273,0.05933534549573722,2.17947783525701
KLIS,58849.041666666664,37.112175696944455,36.70859996333333,681.9263,2.1478277977852653,0.06218589483813365,2.210013692623399
KLUU,58849.041666666664,33.065363481388886,39.07910221916667,1052.3153,2.0540900151816057,0.052959325164986915,2.1070493403465926
KNY1,58849.041666666664,32.47635401138889,37.85939937194445,1084.6432,2.045807043096734,0.05352695933333683,2.099334002430071
KNYA,58849.041666666664,32.5052336063889,38.02215187583333,1205.6816,2.015615389164511,0.050037357824971956,2.065652746989483
KRBK,58849.041666666664,32.675926788611115,41.23162331833333,435.5431,2.212670453320912,0.0675380592164761,2.280208512537388
KRS1,58849.041666666664,43.09344334444446,40.588451581111116,1811.739,1.8689459788128846,0.03300418475967233,1.9019501635725569
KRSU,58849.041666666664,30.69119350611111,41.099315603055565,48.766000000000005,2.318476461995801,0.08086602542240666,2.399342487418208
KSTM,58849.041666666664,33.775505109444445,41.37123244527777,835.3959,2.1062911973032574,0.05508674022983977,2.1613779375330973
KURU,58849.041666666664,32.717741548611116,41.84612521694444,74.4111,2.309800316855586,0.07725675306888004,2.3870570699244658
KUTA,58849.041666666664,29.89885589194445,39.48086533138889,1076.3595,2.046857837182472,0.05282114386019089,2.099678981042663
KUT1,58849.041666666664,30.033640875000003,39.39415354194443,1027.3987,2.0593397532861943,0.054281405698414796,2.1136211589846092
LEFK,58849.041666666664,33.3529036286111,35.195046955277775,180.5037,2.2769267141406457,0.08464182444731201,2.361568538587958
MALY,58849.041666666664,38.21688926111111,38.33769465444445,985.8972,2.072714936565111,0.05311152976736652,2.1258264663324775
MARA,58849.041666666664,36.93113308638889,37.58075446861111,616.7711,2.1675107337032355,0.0651911976993075,2.232701931402543
MAR1,58849.041666666664,36.86149860944445,37.593375224166664,734.3754,2.136426246180886,0.06136694018275411,2.19779318636364
MARD,58849.041666666664,40.72828597444446,37.310500331111115,1064.1371,2.050053833419303,0.04948026595176009,2.099534099371063
MGOS,58849.041666666664,33.90738760666667,35.14582049222222,49.7778,2.3121135554993426,0.09116210288240445,2.403275658381747
MIDY,58849.041666666664,41.357400975555564,37.41739928138889,977.7109,2.071639638541597,0.05191774555159001,2.1235573840931874
MALZ,58849.041666666664,38.216889251944444,38.337694571388894,985.9102,2.0727115926244197,0.05311118181942814,2.125822774443848
MLZ1,58849.041666666664,42.540571397777775,39.145901173611115,1571.7675,1.928120379428191,0.03998593220291612,1.968106311631107
MRSI,58849.041666666664,34.60259238861112,36.7810000175,40.4961,2.320430221058546,0.08926807812350793,2.409698299182054
MUGL,58849.041666666664,28.36443998138889,37.21635825111112,713.6718,2.1368219564332778,0.06469518142857127,2.201517137861849
MUG1,58849.041666666664,28.355676189166672,37.21429318861111,693.2688,2.1420833943857147,0.06540988616438678,2.2074932805501013
MURA,58849.041666666664,43.763118974166666,38.990099946944454,1736.3481,1.8884459337649917,0.036359439513678586,1.9248053732786703
MUR1,58849.041666666664,43.762565616111104,38.9919318175,1734.0357,1.8889949136976243,0.036401206457713935,1.9253961201553382
MUUS,58849.041666666664,41.50216087083333,38.79323737805555,1287.6836,1.9971520830495249,0.04648224969766071,2.0436343327471858
MUS1,58849.041666666664,41.499188175,38.74353990777778,1379.6336,1.9741954590353534,0.044176396727999216,2.0183718557633528
NAHA,58849.041666666664,31.33208772944445,40.173303517222216,705.515,2.142300269151874,0.061710942468248715,2.204011211620123
NEVS,58849.041666666664,34.70294570166667,38.61656502194445,1292.4533,1.9946879928594015,0.046494256530837864,2.041182249390239
NEV1,58849.041666666664,34.710771300833336,38.63146202638889,1234.5227,2.0090296963642515,0.04790990769480568,2.0569396040590573
NIGD,58849.041666666664,34.67943657888889,37.95876982944445,1252.3261,2.004440270564787,0.048030280318887814,2.0524705508836747
NSYB,58849.041666666664,41.21726320194445,37.067020677222224,506.7374,2.1933761191519014,0.06551265118215382,2.2588887703340554
NSY1,58849.041666666664,41.216107820555564,37.07872594583332,493.0643,2.1970435665433508,0.06596696986533061,2.2630105364086814
ONIY,58849.041666666664,36.253857278333335,37.10219246777777,127.1919,2.2984107882368905,0.08281644300013859,2.381227231237029
OZAL,58849.041666666664,43.98867900555555,38.65731246055555,2037.2506,1.8183474906227948,0.031181910049432354,1.8495294006722272
POSF,58849.041666666664,42.72755347972223,41.509056945277784,1566.9899,1.925113820200972,0.03621619170911325,1.9613300119100854
POZA,58849.041666666664,34.87166073833333,37.42211241083333,826.4008,2.111991374575304,0.060631049845812385,2.172622424421116
RDIY,58849.041666666664,37.335666870833336,40.38523471444445,539.8161,2.1869192048573605,0.0604155819412679,2.2473347867986284
RHIY,58849.041666666664,38.770799087222215,39.90611182472223,1626.8571,1.9134114631517516,0.037323622025999315,1.950735085177751
RZE1,58849.041666666664,40.493092049444435,41.03689591555555,70.699,2.3157255101632375,0.07201518270709906,2.3877406928703366
SALH,58849.041666666664,28.12354599888889,38.48308977222222,156.1684,2.2884306988190297,0.08550373692689389,2.3739344357459236
SAMN,58849.041666666664,36.25564263333333,41.34400171666666,33.6775,2.321562008528438,0.07453008326960074,2.396092091798039
SAM1,58849.041666666664,36.33376249222223,41.30849344638889,53.3696,2.3161457850243585,0.07392411158346221,2.390069896607821
SARV,58849.041666666664,32.617255334444444,36.696651574166665,1569.9566,1.926401737421812,0.03950930694380081,1.965911044365613
SARY,58849.041666666664,27.916434325,41.4429682575,198.8697,2.27704215762189,0.07798493569192329,2.3550270933138133
SEMD,58849.041666666664,44.57388782694446,37.30514390305555,1422.9374,1.96364960222936,0.045553719069180564,2.0092033212985405
SEM1,58849.041666666664,44.57282309166667,37.30591342944445,1413.7849,1.9658968972714406,0.0457986915437226,2.0116955888151633
SIHI,58849.041666666664,31.53529230055556,39.4452831775,1118.1271,2.0371225721286415,0.051722577570091036,2.0888451496987326
SIH1,58849.041666666664,31.536250050833328,39.44652019916666,1127.2835,2.0348265312284455,0.05149198822404616,2.0863185194524916
SILF,58849.041666666664,33.936401391666664,36.381889953611115,52.7544,2.315302891163208,0.08958637209021146,2.4048892632534193
SINP,58849.041666666664,35.153944780277776,42.03023426694445,54.5762,2.3142076849440603,0.07529817838971405,2.3895058633337745
SIRN,58849.041666666664,42.45684325416667,37.525026291944435,1459.3128,1.9533329575934621,0.0417249261615497,1.995057883755012
SIR1,58849.041666666664,42.45550330611111,37.523696532222225,1441.6907,1.9575878226501167,0.042119748192079656,1.9997075708421963
SIRT,58849.041666666664,41.93556965611111,37.93190677583333,916.6116,2.0895583045914603,0.05566869336921497,2.145226997960675
SIVE,58849.041666666664,39.329272303888885,37.752394393055546,830.8357,2.110562680108857,0.05601836482324166,2.166581044932099
SIV1,58849.041666666664,39.32167186611112,37.75287257,826.6642,2.1116492962050994,0.056139689701931776,2.1677889859070314
SIVS,58849.041666666664,37.00249450888889,39.743698781388886,1325.4903,1.9863180796926592,0.04414628020983651,2.0304643599024956
SLEE,58849.041666666664,29.60068185555556,41.168729120277774,127.8157,2.296027800557208,0.07920392702374207,2.37523172758095
SLVR,58849.041666666664,28.24846734027777,41.07608006444445,64.3988,2.314444331233655,0.08348972775535199,2.3979340589890072
SSEH,58849.041666666664,38.07489458166667,40.16247306055556,1200.9527,2.016629205962909,0.04517328333337429,2.061802489296283
SSE1,58849.041666666664,38.105015735,40.16910805333333,1001.8530000000001,2.0670150292495215,0.04949765362327194,2.1165126828727936
SUNL,58849.041666666664,34.36891012638889,40.15397829916667,807.302,2.1162126111138218,0.05760849404180615,2.173821105155628
SUN1,58849.041666666664,34.37668658111111,40.163566175,804.7366,2.116867919227511,0.05765538803117815,2.1745233072586894
SURF,58849.041666666664,38.818022698055564,37.191846237777774,680.7649,2.1487528304853414,0.06071579553789386,2.2094686260232352
TEKR,58849.041666666664,27.49649646027778,40.958334589444455,48.7875,2.319236375476827,0.0850189662501164,2.4042553417269437
TNCE,58849.041666666664,39.545632595,39.009672883888896,1019.1414,2.0651386581827142,0.05192693553783111,2.1170655937205454
TNC1,58849.041666666664,39.53489467222221,39.075341731111116,967.7081,2.0786270770115447,0.05339258935088852,2.1320196663624333
TOKA,58849.041666666664,36.557139051111115,40.33104396527778,649.7065,2.1572736941435986,0.05885187287280409,2.2161255670164026
TOK1,58849.041666666664,36.557467001388886,40.33098402694445,662.7152,2.1538183700363978,0.05850161755523379,2.2123199875916315
TRBN,58849.041666666664,39.71148925444445,41.005409409444454,85.3473,2.310302328860957,0.07175951197929706,2.382061840840254
TUFA,58849.041666666664,36.220871685555565,38.26060212222223,1459.3785,1.9545660076522675,0.042633055484836466,1.997199063137104
TUF1,58849.041666666664,36.20844708944445,38.26054415694445,1504.7638,1.943581298828842,0.04159774039203201,1.985179039220874
TVAN,58849.041666666664,42.29045979583333,38.52949228222222,1717.4999,1.8927854729824234,0.037389701699821073,1.9301751746822444
TVA1,58849.041666666664,42.29078311805554,38.52964468472222,1718.0736,1.892649668515985,0.03737822691829091,1.930027895434276
TVA2,58849.041666666664,42.27714920305557,38.51478674972222,1719.1773,1.8923747501274644,0.03735191856867383,1.9297266686961383
UDER,58849.041666666664,41.54755094305556,40.53128318416667,1131.7813,2.036532970091086,0.0471417433355906,2.0836747134266767
UDE1,58849.041666666664,41.54778610611111,40.52995623944445,1141.6799,2.034000005972035,0.04691282931964116,2.0809128352916764
USAK,58849.041666666664,29.405220899999996,38.67921327972222,965.9917,2.0746153148565303,0.05675919423231634,2.1313745090888467
USK1,58849.041666666664,29.39878004972223,38.67902649416665,981.3058,2.0707100689741,0.05630605647825059,2.1270161254523505
VAAN,58849.041666666664,43.28291502861111,38.56535095861111,1695.7476,1.8986220411329044,0.038382535018034125,1.9370045761509385
VAN1,58849.041666666664,43.345811878611116,38.46933702611111,1693.3038,1.8992779288892054,0.03859610306916546,1.937874031958371
VEZI,58849.041666666664,35.46665648388889,41.13800042333333,372.9831,2.2291204442717745,0.06592308380462086,2.2950435280763952
VIRA,58849.041666666664,39.75115866416667,37.233666042777784,596.4266,2.1704989053127965,0.06259066658980168,2.2330895719025983
VIR1,58849.041666666664,39.751699275,37.23055905555556,602.5419999999999,2.1688771780060057,0.06240101016223956,2.231278188168245
VIR2,58849.041666666664,39.74872791527777,37.22553034333333,599.559,2.169658696821905,0.06249491672216923,2.2321536135440745
YENC,58849.041666666664,27.241705869444445,39.935939088055555,333.8638,2.239834411930374,0.07638745676327885,2.3162218686936527
YEN1,58849.041666666664,27.258898433888888,39.92897965,334.0747,2.2397792784347996,0.07638010173652895,2.3161593801713285
YLOV,58849.041666666664,29.262347246388885,40.64907389222222,64.4596,2.3144825337355073,0.08230547097454333,2.3967880047100505
YOZT,58849.041666666664,34.81593101694445,39.82401790027778,1343.1443,1.981062099193187,0.04433524645360684,2.0253973456467937
YOZ1,58849.041666666664,34.84472677222223,39.83144403888889,1455.681,1.953686081392049,0.041927282289743524,1.9956133636817925
YUNK,58849.041666666664,31.726276115000005,38.820465464722226,1192.0592,2.018893098608128,0.05045664218534462,2.0693497407934727
YUN1,58849.041666666664,31.731732529444447,38.816163016944444,1150.4153,2.0292833649912065,0.05153682399689601,2.0808201889881026
ZONG,58849.041666666664,31.778170604166665,41.44952560277777,168.1403,2.2844047273078383,0.07508686663642668,2.359491593944265
ADAN,58849.08333333333,35.343713346111116,37.003499327777774,60.5178,2.315572241493358,0.08614296989199018,2.401715211385348
ADN1,58849.08333333333,35.34374212638889,37.00417502916667,60.8096,2.3154954378339077,0.08613222527906991,2.4016276631129774
ADIY,58849.08333333333,38.22967929944444,37.74585825888889,711.0972,2.1425901826275284,0.06065420007951015,2.2032443827070387
ADY1,58849.08333333333,38.26123880194445,37.760579155277775,741.1756,2.134693450104841,0.05968873081476987,2.194382180919611
AFYN,58849.08333333333,30.56100326527778,38.738361811944436,1072.276,2.0485817998427116,0.05429035508868767,2.1028721549313993
AGRD,58849.08333333333,43.03287470888889,39.71756164083334,1672.5848,1.9033799789629564,0.036809946214508595,1.940189925177465
AKDG,58849.08333333333,35.871643538055565,39.660159732222226,1404.8163,1.9664693097763006,0.042752070195934674,2.009221379972235
AKD1,58849.08333333333,35.871069648055546,39.660470830555546,1408.6832,1.9655259313539097,0.0426694527656781,2.008195384119588
AKHR,58849.08333333333,31.429742201388887,38.36927171444445,1046.3983,2.0554110967025934,0.0551230846541996,2.110534181356793
AKLE,58849.08333333333,38.948206747222216,36.71003653277778,385.2808,2.2261517531433532,0.07018870426918387,2.296340457412537
AKSI,58849.08333333333,31.78749680444445,37.04771597,1193.4362,2.01778132055613,0.05002490723687594,2.067806227793006
AKSR,58849.08333333333,33.99814918166667,38.370389852222225,1005.7896,2.0663684899065036,0.054347867286833114,2.1207163571933365
ALNY,58849.08333333333,31.98854416972223,36.55554557305555,62.8486,2.313103453471598,0.09300591604640841,2.4061093695180062
AMAS,58849.08333333333,35.849294715833345,40.66569066416667,443.6131,2.211525828965317,0.06465630437342666,2.2761821333387435
AMA1,58849.08333333333,35.809534228888886,40.65693418166666,458.5378,2.2075223870644787,0.06432019290178384,2.2718425799662625
ANMU,58849.08333333333,32.865106364722216,36.069014603055564,39.6446,2.318896188062034,0.09419387921052612,2.41309006727256
ANK2,58849.08333333333,32.77534744,39.842806145833336,1296.0554,1.9924980752795705,0.046526723551392264,2.0390247988309627
ANRK,58849.08333333333,32.84620184833334,39.85596459166667,1231.2783,2.008528363883514,0.04802510661053969,2.0565534704940536
ANTE,58849.08333333333,37.37360936611111,37.06496032805556,886.8833,2.0958053255807116,0.056319264817795034,2.1521245903985067
ANTL,58849.08333333333,30.66642457166667,36.88844856083333,88.7527,2.3049867436473774,0.09101082113888671,2.3959975647862644
ARDH,58849.08333333333,42.69906170222222,41.11126062194445,1834.0687,1.8627547674209155,0.03245465544454182,1.8952094228654572
ARPK,58849.08333333333,38.487320009166666,39.040593081388884,1243.5036,2.00787597173768,0.04614315829633875,2.0540191300340185
ARTV,58849.08333333333,41.818316306944446,41.175097286944435,662.3921,2.1555118899378694,0.05593344130184546,2.2114453312397147
AYD1,58849.08333333333,27.8378842725,37.840726428888885,101.8305,2.30153274207799,0.08895485579034536,2.3904875978683355
AYVL,58849.08333333333,26.68617784777777,39.31144246222222,54.2555,2.315884390352913,0.08979470971284359,2.4056791000657567
BALK,58849.08333333333,27.893631236944444,39.63936512250001,202.4916,2.2761550122809937,0.0813442051385559,2.3574992174195497
BAL1,58849.08333333333,27.89266047555555,39.62949798472222,196.9411,2.2776899380410467,0.08158498240429199,2.3592749204453387
BAND,58849.08333333333,27.9967112775,40.33122510555556,97.2344,2.305487695380094,0.0837451289236459,2.3892328243037397
BAN1,58849.08333333333,27.974945728611107,40.34865146444445,98.109,2.305237838901328,0.08369612571908876,2.3889339646204166
BASK,58849.08333333333,44.01730383277778,38.043443638055564,2312.2405,1.7566988933898018,0.027039174468596446,1.7837380678583983
BAYB,58849.08333333333,40.19143542361111,40.250150286111115,1709.0492,1.893505699809327,0.03543084549524884,1.9289365453045757
BEYS,58849.08333333333,31.74655044472223,37.67730099583333,1187.4602,2.0196504929576267,0.051261077106565175,2.070911570064192
BILE,58849.08333333333,29.977391880555558,40.14146042222223,584.326,2.1737825480072193,0.06582110196765693,2.2396036499748764
BING,58849.08333333333,40.50078317138889,38.885452529166656,1183.5291,2.023091474537391,0.04811223704961243,2.0712037115870037
BIN1,58849.08333333333,40.5027404275,38.897216830555564,1170.211,2.0264916200363694,0.04846814706642866,2.074959767102798
BOGZ,58849.08333333333,35.255099929444434,39.19360868333333,1106.7392,2.0407778946402244,0.050449833687942404,2.0912277283281666
BOG1,58849.08333333333,35.247097085833325,39.19333479277777,1118.227,2.037873372296632,0.0501568509462187,2.0880302232428507
BOLU,58849.08333333333,31.602032685555557,40.73353960666667,789.2424,2.1198305065664425,0.058477870069987704,2.17830837663643
BOL1,58849.08333333333,31.606489812222225,40.746410184444436,802.5026,2.1163760021098135,0.05810445190485308,2.1744804540146667
BOYT,58849.08333333333,34.79666032861111,41.461039670833344,404.6842,2.219869599200201,0.06504982576871546,2.2849194249689164
BTMN,58849.08333333333,41.15448343027778,37.863601290277785,650.7873,2.1578144414210305,0.06200654751297032,2.219820988934001
BURS,58849.08333333333,29.015229196944443,40.214251377777785,183.2849,2.2820584117982743,0.07969824113929458,2.3617566529375686
CANA,58849.08333333333,26.4143352025,40.111205126944455,141.172,2.292525539713963,0.08437325351759059,2.3768987932315535
CANK,58849.08333333333,33.61038037222223,40.608575739444454,794.9424,2.1190529652208245,0.05852983441524337,2.1775827996360677
CATK,58849.08333333333,43.060692934722226,38.007344513333344,1527.9151,1.938454516633385,0.04199997973552651,1.9804544963689117
CAVD,58849.08333333333,29.69016344916667,37.15636927083333,1130.4841,2.0316429924551365,0.05236704412951501,2.0840100365846514
CAV1,58849.08333333333,29.68854743555556,37.15925801888889,1109.9943,2.0367264266171157,0.052988653181530204,2.089715079798646
CAV2,58849.08333333333,29.689246056944448,37.157089990277775,1128.4628,2.03214348393823,0.052428402096487206,2.084571886034717
CESM,58849.08333333333,26.372570265,38.30381589888889,52.4472,2.314776480586359,0.0915982452972215,2.4063747258835804
CZRE,58849.08333333333,42.187998243888885,37.328148091111125,417.4252,2.219750693061931,0.07133636944303709,2.291087062504968
CIHA,58849.08333333333,32.92240568222222,38.65038676611111,1012.7128,2.0642794260979063,0.0544600603140815,2.1187394864119877
CMLD,58849.08333333333,32.474515216111115,40.49096622416667,1274.1594,1.9971190595916513,0.0466736892313017,2.043792748822953
CORU,58849.08333333333,34.98220358138889,40.57041087777778,922.0965,2.085554434199631,0.053159006651658514,2.13871344085129
CYLN,58849.08333333333,40.053432699444436,36.85094627194445,394.788,2.223386889254092,0.06907211531291911,2.292459004567011
DATC,58849.08333333333,27.69183474361111,36.70857246111112,59.17,2.3097688632717044,0.09195958942662907,2.4017284526983333
DEIR,58849.08333333333,28.648404974722226,39.034850775,890.9131,2.093186194705801,0.05843907565887782,2.1516252703646788
DEI1,58849.08333333333,28.66268656944445,39.050898043888886,974.4581,2.0719333836908778,0.056032868877697005,2.1279662525685747
DENI,58849.08333333333,29.092134164722218,37.76210177638889,471.0808,2.2027019671806984,0.0752552092866839,2.2779571764673823
DNZ1,58849.08333333333,29.04374140111111,37.77879908722222,537.9361,2.1847251810283623,0.07241806665393243,2.257143247682295
DLUC,58849.08333333333,44.79747261694444,39.65510951861111,837.0657,2.1120235644374503,0.05139369039237913,2.1634172548298296
DIDI,58849.08333333333,27.268660950555553,37.372130087777784,79.2684,2.306132965392682,0.0905276091158808,2.3966605745085627
DINA,58849.08333333333,30.166335914722218,38.06946334166667,917.9084,2.0870742978803802,0.059453636297635205,2.1465279341780152
DIPK,58849.08333333333,34.19466429583333,35.536897014444435,155.2779,2.2839374221147546,0.08513363734578724,2.3690710594605418
DIVR,58849.08333333333,38.103883784444456,39.39431797416667,1087.6045,2.047567742999433,0.05017665817300484,2.097744401172438
DIV1,58849.08333333333,38.1194158,39.37187686555556,1072.8901,2.051339954273137,0.05055842805833922,2.101898382331476
DIYB,58849.08333333333,40.18749263222221,37.954416830555566,773.6755,2.1257212823437452,0.05769510455674603,2.1834163869004914
EDIR,58849.08333333333,26.551010272777773,41.67671157416667,98.1979,2.3059315323224223,0.08130544326907958,2.387236975591502
EKIZ,58849.08333333333,37.18794046555555,38.05883177277777,1325.0423,1.987310411245935,0.04550504001153094,2.032815451257466
EKZ1,58849.08333333333,37.18727368055555,38.05816525305557,1328.8748,1.9863657458651895,0.045412481688776936,2.0317782275539664
ELAZ,58849.08333333333,39.256465076666665,38.64467205333333,1027.4191,2.062127674748244,0.05128257691635945,2.113410251664604
EMIR,58849.08333333333,31.14402582666667,39.02218994,1057.6719,2.0523559927713992,0.054012581845207686,2.106368574616607
EMR1,58849.08333333333,31.00006469416667,39.02029899583333,1012.6311,2.0637304599260227,0.05531912500571815,2.119049584931741
ERGN,58849.08333333333,39.75819282888889,38.26960403777777,987.8096,2.0713009337825983,0.05202668295045581,2.123327616733054
ERZI,58849.08333333333,39.506070502222215,39.745670600833336,1238.3736,2.009320637771469,0.04589103057523002,2.055211668346699
ERZ1,58849.08333333333,39.506118460277776,39.74583746277777,1238.256,2.0093497105202487,0.04589321094699253,2.0552429214672414
ERZ2,58849.08333333333,39.69703993472222,39.70785832305557,1437.6043,1.9599659779347232,0.04167535305787161,2.001641330992595
ERZR,58849.08333333333,41.255465694166666,39.905608304444435,1915.0094,1.845850874919896,0.03283148179214623,1.8786823567120423
ESKS,58849.08333333333,30.463611866944444,39.745686321944454,850.7521,2.1046156063250603,0.058639933615702786,2.163255539940763
FASA,58849.08333333333,37.484747905,41.045527145555546,40.9765,2.3210133463378404,0.07372230285170353,2.3947356491895437
FEEK,58849.08333333333,35.912326426666674,37.81511508555555,600.2955,2.172105122372134,0.06637124606055962,2.2384763684326936
FETH,58849.08333333333,29.123773816111115,36.62620807055556,37.3266,2.316865386041324,0.09641469257464177,2.413280078615966
FINI,58849.08333333333,30.146409626944447,36.3022174675,36.3572,2.3154706349926206,0.09330543518313292,2.4087760701757537
GEME,58849.08333333333,36.080844974722226,39.185131608333336,1214.7947,2.0142107429298832,0.047792048087581064,2.062002791017464
GIRS,58849.08333333333,38.388156842777775,40.92262907055555,81.2765,2.3108693489380943,0.07178859947786122,2.3826579484159556
GODA,58849.08333333333,25.903453170555554,40.19715683,101.2589,2.303521529048379,0.0860881963329937,2.3896097253813724
GUMU,58849.08333333333,39.516172196666666,40.437072987777775,1248.5330000000001,2.004458626015165,0.04292056137590171,2.047379187391067
GURU,58849.08333333333,37.30786893138889,38.7173515575,1357.4395,1.9796380921714725,0.04477105312887239,2.024409145300345
GYUR,58849.08333333333,32.989468375555546,35.20124792638889,78.9818,2.30398192648662,0.0893659828117228,2.3933479092983427
HAKK,58849.08333333333,43.73912818888889,37.57431627055556,1758.0393,1.8834682813248085,0.03758362063802129,1.9210519019628298
HAK1,58849.08333333333,43.734014227222225,37.57615342861111,1773.3105,1.8798610486273577,0.037244102229276016,1.9171051508566337
HALP,58849.08333333333,34.18337524333333,37.44508057277777,1252.501,2.0041573222183113,0.0483763800232689,2.0525337022415804
HARC,58849.08333333333,29.152760284444447,39.677743656944436,712.5283,2.1399572521116124,0.0630912969290468,2.203048549040659
HATA,58849.08333333333,36.152749505,36.2082752325,137.8892,2.2913031246727833,0.08234686646852925,2.3736499911413125
HAT1,58849.08333333333,36.15582107722222,36.200018265833336,132.3239,2.2928204662332883,0.08261739146182773,2.375437857695116
HEND,58849.08333333333,30.740748121944453,40.79499124416667,208.5337,2.274818811116925,0.07586354988841056,2.3506823610053353
HINI,58849.08333333333,41.69578707194446,39.36878741805555,1742.6226,1.8870536469609265,0.03674724174535566,1.923800888706282
HORS,58849.08333333333,42.167326805277774,40.04164636111111,1592.3273,1.9225676924021828,0.03848953663482096,1.9610572290370039
HYMN,58849.08333333333,32.49571417222222,39.43472457583333,1261.5391,2.001453385285065,0.04778438369325855,2.0492377689783234
HYM1,58849.08333333333,32.49525520388888,39.43708812694444,1240.3469,2.0067028659651007,0.04829566737210961,2.0549985333372103
IGIR,58849.08333333333,44.018251443611106,39.9292007475,884.2851,2.100792074678236,0.051893940637370774,2.1526860153156067
IGR1,58849.08333333333,44.05374837194446,39.926443471388886,881.0018,2.1015864384113625,0.05184470840553566,2.153431146816898
INEB,58849.08333333333,33.76282383555556,41.979091618611115,98.4458,2.3031485011936472,0.07567376427517378,2.378822265468821
INE1,58849.08333333333,33.762860835277785,41.97900028805556,98.1481,2.3032324968125537,0.07568425899000603,2.37891675580256
INE2,58849.08333333333,33.7677733075,41.976968200833326,48.0414,2.317350609290716,0.07745266229649635,2.3948032715872123
INE3,58849.08333333333,33.76135067083333,41.97905228777778,62.6653,2.3132162866961,0.07693809847956715,2.3901543851756673
IPSA,58849.08333333333,26.379780585277782,40.917532141944434,49.2362,2.319154285111218,0.08590177928908141,2.4050560644002994
IPS1,58849.08333333333,26.385506192777786,40.92146472027778,66.4949,2.314294208272855,0.0851716261924449,2.3994658344652997
IPS2,58849.08333333333,26.38429158138889,40.921480122777766,64.30199999999999,2.3149116841735737,0.08526252238348855,2.4001742065570624
ISPT,58849.08333333333,30.56697776888889,37.78508936833333,1032.1306,2.057885482651222,0.05614958841139163,2.1140350710626135
ISTN,58849.08333333333,28.831634081666675,40.99096174777778,77.0522,2.3106801689893928,0.08232877766154753,2.3930089466509403
IZMI,58849.08333333333,27.08182221361111,38.394807905,74.935,2.3092237489843743,0.08945842712579262,2.398682176110167
IZMT,58849.08333333333,29.95093363,40.80197816333333,326.0741,2.242100048119375,0.0723068213772761,2.314406869496651
KAAS,58849.08333333333,29.643158024999998,36.19839326638888,54.4486,2.310497183564786,0.09517018378490316,2.405667367349689
KAMN,58849.08333333333,33.22027138,37.193227216111104,1057.0068,2.0522312392574196,0.05350060447330607,2.1057318437307257
KAPN,58849.08333333333,33.52692669833332,37.71466462083335,1039.5111,2.05733412604233,0.05396834273916039,2.1113024687814903
KAP1,58849.08333333333,33.528278693333334,37.71441642944445,1034.4914,2.058605998876039,0.054114185386355554,2.112720184262394
KARB,58849.08333333333,28.68277089388889,41.34711842138889,93.5867,2.3058703331298815,0.08162990463699175,2.3875002377668735
KAYS,58849.08333333333,35.524460878055564,38.708372088888886,1138.7758,2.0333445258813923,0.050332103808459996,2.0836766296898523
KAY1,58849.08333333333,35.503070220833344,38.71366367277777,1117.9267,2.038580484544815,0.05086959900614644,2.0894500835509615
KIKA,58849.08333333333,27.672205611944445,39.105991361111116,241.2092,2.264797068424118,0.08084290762717528,2.3456399760512934
KIRL,58849.08333333333,27.21794899055556,41.73812180611111,280.6111,2.254717932518976,0.07424298959220167,2.328960922111178
KIRS,58849.08333333333,34.155487785,39.16462421666667,1063.64,2.051328999829803,0.051942504492152805,2.103271504321956
KIS1,58849.08333333333,34.163130851944445,39.14338055416667,1030.3007,2.0598118054358054,0.05284033667616258,2.112652142111968
KKAL,58849.08333333333,33.51788380583333,39.84326516055556,794.5681,2.1201366868404365,0.05932774596975535,2.179464432810192
KLIS,58849.08333333333,37.112175696944455,36.70859996333333,681.9263,2.1478228413582765,0.06218089046557058,2.2100037318238472
KLUU,58849.08333333333,33.065363481388886,39.07910221916667,1052.3153,2.0540839206632335,0.05295204853285213,2.107035969196086
KNY1,58849.08333333333,32.47635401138889,37.85939937194445,1084.6432,2.045801062568325,0.053519056751188676,2.099320119319514
KNYA,58849.08333333333,32.5052336063889,38.02215187583333,1205.6816,2.015609224605656,0.05002989690448993,2.065639121510146
KRBK,58849.08333333333,32.675926788611115,41.23162331833333,435.5431,2.2126654279841556,0.06753073852710298,2.2801961665112587
KRS1,58849.08333333333,43.09344334444446,40.588451581111116,1811.739,1.868939109461563,0.03300152826926346,1.9019406377308266
KRSU,58849.08333333333,30.69119350611111,41.099315603055565,48.766000000000005,2.3184724313371947,0.08085758250661913,2.399330013843814
KSTM,58849.08333333333,33.775505109444445,41.37123244527777,835.3959,2.1062853773337515,0.05508020476527182,2.161365582099023
KURU,58849.08333333333,32.717741548611116,41.84612521694444,74.4111,2.3097961029603846,0.07724866576532807,2.387044768725713
KUTA,58849.08333333333,29.89885589194445,39.48086533138889,1076.3595,2.0468518253754033,0.052814509669352104,2.0996663350447555
KUT1,58849.08333333333,30.033640875000003,39.39415354194443,1027.3987,2.0593338044969243,0.05427463092047607,2.1136084354174005
LEFK,58849.08333333333,33.3529036286111,35.195046955277775,180.5037,2.276923008913675,0.08463169374625529,2.3615547026599306
MALY,58849.08333333333,38.21688926111111,38.33769465444445,985.8972,2.0727092903433824,0.053105652247674655,2.125814942591057
MARA,58849.08333333333,36.93113308638889,37.58075446861111,616.7711,2.1675058256684228,0.06518503958306243,2.2326908652514854
MAR1,58849.08333333333,36.86149860944445,37.593375224166664,734.3754,2.1364211130569144,0.061360919995971076,2.1977820330528854
MARD,58849.08333333333,40.72828597444446,37.310500331111115,1064.1371,2.050048157212856,0.049473285872370154,2.099521443085226
MGOS,58849.08333333333,33.90738760666667,35.14582049222222,49.7778,2.312110225201922,0.09115141710943166,2.403261642311354
MIDY,58849.08333333333,41.357400975555564,37.41739928138889,977.7109,2.071634130047366,0.0519102005507405,2.1235443305981065
MALZ,58849.08333333333,38.216889251944444,38.337694571388894,985.9102,2.072705946379013,0.053105304328166875,2.12581125070718
MLZ1,58849.08333333333,42.540571397777775,39.145901173611115,1571.7675,1.9281138228642274,0.039980660821822854,1.9680944836860503
MRSI,58849.08333333333,34.60259238861112,36.7810000175,40.4961,2.320426522061614,0.08925973077312131,2.409686252834735
MUGL,58849.08333333333,28.36443998138889,37.21635825111112,713.6718,2.136816691818366,0.06468512741574849,2.2015018192341147
MUG1,58849.08333333333,28.355676189166672,37.21429318861111,693.2688,2.1420781594958807,0.06539973747787947,2.20747789697376
MURA,58849.08333333333,43.763118974166666,38.990099946944454,1736.3481,1.888439249276722,0.03635431812517267,1.9247935674018946
MUR1,58849.08333333333,43.762565616111104,38.9919318175,1734.0357,1.8889882318518392,0.0363960797057703,1.9253843115576095
MUUS,58849.08333333333,41.50216087083333,38.79323737805555,1287.6836,1.9971459035699801,0.04647588927585419,2.0436217928458342
MUS1,58849.08333333333,41.499188175,38.74353990777778,1379.6336,1.9741891568177488,0.04417024559587498,2.0183594024136235
NAHA,58849.08333333333,31.33208772944445,40.173303517222216,705.515,2.1422947404438704,0.061703708118833724,2.203998448562704
NEVS,58849.08333333333,34.70294570166667,38.61656502194445,1292.4533,1.9946817057182558,0.04648766727450171,2.0411693729927576
NEV1,58849.08333333333,34.710771300833336,38.63146202638889,1234.5227,2.0090234900948647,0.047903173862690794,2.0569266639575554
NIGD,58849.08333333333,34.67943657888889,37.95876982944445,1252.3261,2.004434134970545,0.048023552201236955,2.0524576871717817
NSYB,58849.08333333333,41.21726320194445,37.067020677222224,506.7374,2.193371428956933,0.0655041252901414,2.2588755542470746
NSY1,58849.08333333333,41.216107820555564,37.07872594583332,493.0643,2.1970388975412667,0.06595838557764949,2.2629972831189162
ONIY,58849.08333333333,36.253857278333335,37.10219246777777,127.1919,2.2984069970620284,0.08281052935951991,2.3812175264215485
OZAL,58849.08333333333,43.98867900555555,38.65731246055555,2037.2506,1.8183404954899551,0.031177293856996434,1.8495177893469517
POSF,58849.08333333333,42.72755347972223,41.509056945277784,1566.9899,1.925107260538159,0.0362136132370703,1.9613208737752292
POZA,58849.08333333333,34.87166073833333,37.42211241083333,826.4008,2.1119860247284463,0.06062372120430869,2.172609745932755
RDIY,58849.08333333333,37.335666870833336,40.38523471444445,539.8161,2.1869143085866884,0.06041088665762521,2.2473251952443136
RHIY,58849.08333333333,38.770799087222215,39.90611182472223,1626.8571,1.9134047318330927,0.037321106933443635,1.9507258387665363
RZE1,58849.08333333333,40.493092049444435,41.03689591555555,70.699,2.3157217059115656,0.07201164993278457,2.3877333558443503
SALH,58849.08333333333,28.12354599888889,38.48308977222222,156.1684,2.2884262805824216,0.08549214980731391,2.3739184303897356
SAMN,58849.08333333333,36.25564263333333,41.34400171666666,33.6775,2.321557830484021,0.07452378769698903,2.39608161818101
SAM1,58849.08333333333,36.33376249222223,41.30849344638889,53.3696,2.316141584142984,0.07391790237003902,2.390059486513023
SARV,58849.08333333333,32.617255334444444,36.696651574166665,1569.9566,1.9263953338959237,0.03950294468216067,1.9658982785780843
SARY,58849.08333333333,27.916434325,41.4429682575,198.8697,2.2770380473699228,0.07797454532975126,2.355012592699674
SEMD,58849.08333333333,44.57388782694446,37.30514390305555,1422.9374,1.9636435688955771,0.04554723191245091,2.009190800808028
SEM1,58849.08333333333,44.57282309166667,37.30591342944445,1413.7849,1.96589087704164,0.045792171800365274,2.011683048842005
SIHI,58849.08333333333,31.53529230055556,39.4452831775,1118.1271,2.0371164051108166,0.05171594651444215,2.0888323516252587
SIH1,58849.08333333333,31.536250050833328,39.44652019916666,1127.2835,2.0348203529963573,0.05148538375900279,2.08630573675536
SILF,58849.08333333333,33.936401391666664,36.381889953611115,52.7544,2.3152992448926653,0.08957785740825738,2.4048771023009228
SINP,58849.08333333333,35.153944780277776,42.03023426694445,54.5762,2.3142033421943187,0.07529065724109166,2.3894939994354103
SIRN,58849.08333333333,42.45684325416667,37.525026291944435,1459.3128,1.953326821250288,0.04171847979453654,1.9950453010448244
SIR1,58849.08333333333,42.45550330611111,37.523696532222225,1441.6907,1.9575817105868623,0.04211325043688374,1.999694961023746
SIRT,58849.08333333333,41.93556965611111,37.93190677583333,916.6116,2.089552834341803,0.055660299676043704,2.1452131340178466
SIVE,58849.08333333333,39.329272303888885,37.752394393055546,830.8357,2.110557233149121,0.05601179157328978,2.1665690247224108
SIV1,58849.08333333333,39.32167186611112,37.75287257,826.6642,2.1116438565752316,0.05613311100539447,2.167776967580626
SIVS,58849.08333333333,37.00249450888889,39.743698781388886,1325.4903,1.9863117519835924,0.0441418847723285,2.030453636755921
SLEE,58849.08333333333,29.60068185555556,41.168729120277774,127.8157,2.2960237233990797,0.07919492999304723,2.375218653392127
SLVR,58849.08333333333,28.24846734027777,41.07608006444445,64.3988,2.3144404546013777,0.08347897335316848,2.3979194279545464
SSEH,58849.08333333333,38.07489458166667,40.16247306055556,1200.9527,2.016623135337571,0.0451699953626074,2.0617931307001784
SSE1,58849.08333333333,38.105015735,40.16910805333333,1001.8530000000001,2.067009333722101,0.04949415948817582,2.116503493210277
SUNL,58849.08333333333,34.36891012638889,40.15397829916667,807.302,2.1162068326100316,0.057601545399416094,2.173808378009448
SUN1,58849.08333333333,34.37668658111111,40.163566175,804.7366,2.116862144809724,0.0576484412979424,2.1745105861076666
SURF,58849.08333333333,38.818022698055564,37.191846237777774,680.7649,2.1487476888722368,0.0607094913382623,2.209457180210499
TEKR,58849.08333333333,27.49649646027778,40.958334589444455,48.7875,2.3192325432789405,0.08500683696837288,2.404239380247313
TNCE,58849.08333333333,39.545632595,39.009672883888896,1019.1414,2.0651329245567336,0.05192192219129428,2.1170548467480277
TNC1,58849.08333333333,39.53489467222221,39.075341731111116,967.7081,2.0786214349020513,0.0533876854834606,2.132009120385512
TOKA,58849.08333333333,36.557139051111115,40.33104396527778,649.7065,2.1572684714195116,0.05884644937355665,2.216114920793068
TOK1,58849.08333333333,36.557467001388886,40.33098402694445,662.7152,2.1538131211113978,0.058496218483924674,2.2123093395953224
TRBN,58849.08333333333,39.71148925444445,41.005409409444454,85.3473,2.3102985543247123,0.07175554028410333,2.3820540946088156
TUFA,58849.08333333333,36.220871685555565,38.26060212222223,1459.3785,1.954559565750622,0.042627454862820956,1.997187020613443
TUF1,58849.08333333333,36.20844708944445,38.26054415694445,1504.7638,1.9435747885818186,0.04159222620540208,1.9851670147872207
TVAN,58849.08333333333,42.29045979583333,38.52949228222222,1717.4999,1.892778780521783,0.03738400788854049,1.9301627884103236
TVA1,58849.08333333333,42.29078311805554,38.52964468472222,1718.0736,1.8926429753523655,0.03737253516198463,1.9300155105143502
TVA2,58849.08333333333,42.27714920305557,38.51478674972222,1719.1773,1.8923680566596246,0.03734620990992849,1.929714266569553
UDER,58849.08333333333,41.54755094305556,40.53128318416667,1131.7813,2.0365271067154556,0.0471396760700233,2.0836667827854787
UDE1,58849.08333333333,41.54778610611111,40.52995623944445,1141.6799,2.0339941254277663,0.046910776169059004,2.080904901596825
USAK,58849.08333333333,29.405220899999996,38.67921327972222,965.9917,2.0746095140380585,0.05675173205482774,2.131361246092886
USK1,58849.08333333333,29.39878004972223,38.67902649416665,981.3058,2.070704245771452,0.05629863553661924,2.1270028813080715
VAAN,58849.08333333333,43.28291502861111,38.56535095861111,1695.7476,1.8986154160810833,0.03837688110601565,1.936992297187099
VAN1,58849.08333333333,43.345811878611116,38.46933702611111,1693.3038,1.8992713198847084,0.038590350626708354,1.937861670511417
VEZI,58849.08333333333,35.46665648388889,41.13800042333333,372.9831,2.229115485128473,0.06591677052439535,2.2950322556528686
VIRA,58849.08333333333,39.75115866416667,37.233666042777784,596.4266,2.170493890431087,0.06258347643793244,2.2330773668690194
VIR1,58849.08333333333,39.751699275,37.23055905555556,602.5419999999999,2.168872153326393,0.06239383464086687,2.2312659879672596
VIR2,58849.08333333333,39.74872791527777,37.22553034333333,599.559,2.1696536779352047,0.06248774159375711,2.2321414195289617
YENC,58849.08333333333,27.241705869444445,39.935939088055555,333.8638,2.239829995576239,0.07637600881392245,2.3162060043901613
YEN1,58849.08333333333,27.258898433888888,39.92897965,334.0747,2.239774859195516,0.07636867550312393,2.3161435346986403
YLOV,58849.08333333333,29.262347246388885,40.64907389222222,64.4596,2.3144786044268013,0.08229597144752629,2.3967745758743275
YOZT,58849.08333333333,34.81593101694445,39.82401790027778,1343.1443,1.981055590799116,0.04432968621295242,2.0253852770120684
YOZ1,58849.08333333333,34.84472677222223,39.83144403888889,1455.681,1.953679423547146,0.04192198071036635,1.9956014042575123
YUNK,58849.08333333333,31.726276115000005,38.820465464722226,1192.0592,2.0188868548883683,0.050449647172467055,2.0693365020608354
YUN1,58849.08333333333,31.731732529444447,38.816163016944444,1150.4153,2.029277173106362,0.05152969525057793,2.08080686835694
ZONG,58849.08333333333,31.778170604166665,41.44952560277777,168.1403,2.284400387745084,0.07507949266687756,2.3594798804119614
ADAN,58849.12499999999,35.343713346111116,37.003499327777774,60.5178,2.315568577122134,0.08613545486822805,2.401704031990362
ADN1,58849.12499999999,35.34374212638889,37.00417502916667,60.8096,2.315491772720031,0.0861247103463765,2.4016164830664075
ADIY,58849.12499999999,38.22967929944444,37.74585825888889,711.0972,2.142585007626316,0.06064794664175125,2.203232954268067
ADY1,58849.12499999999,38.26123880194445,37.760579155277775,741.1756,2.13468821686675,0.05968251955883591,2.194370736425586
AFYN,58849.12499999999,30.56100326527778,38.738361811944436,1072.276,2.0485757301668452,0.05428326972469822,2.1028589998915437
AGRD,58849.12499999999,43.03287470888889,39.71756164083334,1672.5848,1.9033732901734524,0.03680589395007842,1.9401791841235307
AKDG,58849.12499999999,35.871643538055565,39.660159732222226,1404.8163,1.9664627671456656,0.04274696896654538,2.009209736112211
AKD1,58849.12499999999,35.871069648055546,39.660470830555546,1408.6832,1.9655193828749333,0.042664358884328575,2.008183741759262
AKHR,58849.12499999999,31.429742201388887,38.36927171444445,1046.3983,2.0554050762872604,0.055115409682265255,2.1105204859695257
AKLE,58849.12499999999,38.948206747222216,36.71003653277778,385.2808,2.226147198919132,0.0701822626602385,2.2963294615793703
AKSI,58849.12499999999,31.78749680444445,37.04771597,1193.4362,2.0177753651454498,0.05001774784280861,2.0677931129882583
AKSR,58849.12499999999,33.99814918166667,38.370389852222225,1005.7896,2.06636262141044,0.054340211147182384,2.120702832557622
ALNY,58849.12499999999,31.98854416972223,36.55554557305555,62.8486,2.3130994778308263,0.09299469893802118,2.4060941767688475
AMAS,58849.12499999999,35.849294715833345,40.66569066416667,443.6131,2.2115208269033295,0.0646501018511599,2.2761709287544893
AMA1,58849.12499999999,35.809534228888886,40.65693418166666,458.5378,2.2075173479174772,0.06431397658195159,2.271831324499429
ANMU,58849.12499999999,32.865106364722216,36.069014603055564,39.6446,2.3188924820589842,0.09418312331251313,2.4130756053714975
ANK2,58849.12499999999,32.77534744,39.842806145833336,1296.0554,1.992491585648613,0.04652061943715128,2.0390122050857644
ANRK,58849.12499999999,32.84620184833334,39.85596459166667,1231.2783,2.008521955670608,0.04801883594376829,2.0565407916143763
ANTE,58849.12499999999,37.37360936611111,37.06496032805556,886.8833,2.095799926675021,0.05631387963365304,2.152113806308674
ANTL,58849.12499999999,30.66642457166667,36.88844856083333,88.7527,2.304982515565321,0.09099955903104716,2.3959820745963682
ARDH,58849.12499999999,42.69906170222222,41.11126062194445,1834.0687,1.8627478635552426,0.03245254238840411,1.8952004059436467
ARPK,58849.12499999999,38.487320009166666,39.040593081388884,1243.5036,2.0078699045138286,0.04613888193609706,2.0540087864499257
ARTV,58849.12499999999,41.818316306944446,41.175097286944435,662.3921,2.155506846946744,0.055930495588222065,2.2114373425349663
AYD1,58849.12499999999,27.8378842725,37.840726428888885,101.8305,2.301528420750525,0.08894185890725878,2.3904702796577837
AYVL,58849.12499999999,26.68617784777777,39.31144246222222,54.2555,2.315880405517213,0.08978096346387403,2.4056613689810873
BALK,58849.12499999999,27.893631236944444,39.63936512250001,202.4916,2.27615074531873,0.08133315441625766,2.357483899734988
BAL1,58849.12499999999,27.89266047555555,39.62949798472222,196.9411,2.277685680262578,0.08157390576788755,2.3592595860304653
BAND,58849.12499999999,27.9967112775,40.33122510555556,97.2344,2.3054837275323616,0.08373382997149688,2.3892175575038586
BAN1,58849.12499999999,27.974945728611107,40.34865146444445,98.109,2.3052338724824124,0.08368478791021229,2.388918660392625
BASK,58849.12499999999,44.01730383277778,38.043443638055564,2312.2405,1.7566916747399872,0.02703511313319752,1.7837267878731848
BAYB,58849.12499999999,40.19143542361111,40.250150286111115,1709.0492,1.893498889532358,0.03542944353384369,1.9289283330662015
BEYS,58849.12499999999,31.74655044472223,37.67730099583333,1187.4602,2.0196443938679116,0.05125375439591559,2.070898148263827
BILE,58849.12499999999,29.977391880555558,40.14146042222223,584.326,2.1737774344217993,0.06581349239885638,2.2395909268206555
BING,58849.12499999999,40.50078317138889,38.885452529166656,1183.5291,2.023085463955552,0.04810643790145968,2.071191901857012
BIN1,58849.12499999999,40.5027404275,38.897216830555564,1170.211,2.0264856306004395,0.04846234042017179,2.0749479710206113
BOGZ,58849.12499999999,35.255099929444434,39.19360868333333,1106.7392,2.0407718186877903,0.05044337269078225,2.0912151913785726
BOG1,58849.12499999999,35.247097085833325,39.19333479277777,1118.227,2.037867277993827,0.05015041692586241,2.088017694919689
BOLU,58849.12499999999,31.602032685555557,40.73353960666667,789.2424,2.119824867971634,0.058471276183413634,2.1782961441550475
BOL1,58849.12499999999,31.606489812222225,40.746410184444436,802.5026,2.1163703423346036,0.05809789941511709,2.1744682417497208
BOYT,58849.12499999999,34.79666032861111,41.461039670833344,404.6842,2.2198645690722474,0.06504296665579601,2.2849075357280433
BTMN,58849.12499999999,41.15448343027778,37.863601290277785,650.7873,2.1578093525567628,0.06199763004821875,2.2198069826049815
BURS,58849.12499999999,29.015229196944443,40.214251377777785,183.2849,2.2820542011209834,0.07968878162535047,2.361742982746334
CANA,58849.12499999999,26.4143352025,40.111205126944455,141.172,2.2925215256435747,0.08435979137916093,2.3768813170227356
CANK,58849.12499999999,33.61038037222223,40.608575739444454,794.9424,2.1190471574405416,0.058522707008718096,2.17756986444926
CATK,58849.12499999999,43.060692934722226,38.007344513333344,1527.9151,1.938448180294115,0.041993541753493825,1.9804417220476087
CAVD,58849.12499999999,29.69016344916667,37.15636927083333,1130.4841,2.0316370761548668,0.052358914792748075,2.083995990947615
CAV1,58849.12499999999,29.68854743555556,37.15925801888889,1109.9943,2.0367205362404794,0.05298045081572905,2.0897009870562084
CAV2,58849.12499999999,29.689246056944448,37.157089990277775,1128.4628,2.0321375700909545,0.052420265387317665,2.084557835478272
CESM,58849.12499999999,26.372570265,38.30381589888889,52.4472,2.3147724266506455,0.09158374080276685,2.406356167453412
CZRE,58849.12499999999,42.187998243888885,37.328148091111125,417.4252,2.219746231276115,0.07132664032426181,2.2910728716003765
CIHA,58849.12499999999,32.92240568222222,38.65038676611111,1012.7128,2.064273432190883,0.05445232717970364,2.118725759370587
CMLD,58849.12499999999,32.474515216111115,40.49096622416667,1274.1594,1.9971125668518068,0.046667837193556924,2.0437804040453638
CORU,58849.12499999999,34.98220358138889,40.57041087777778,922.0965,2.08554850055274,0.053153036720351286,2.138701537273091
CYLN,58849.12499999999,40.053432699444436,36.85094627194445,394.788,2.2233822977819337,0.06906446023900634,2.2924467580209402
DATC,58849.12499999999,27.69183474361111,36.70857246111112,59.17,2.3097646979847584,0.09194517049614548,2.401709868480904
DEIR,58849.12499999999,28.648404974722226,39.034850775,890.9131,2.0931805894154123,0.05843113686649888,2.151611726281911
DEI1,58849.12499999999,28.66268656944445,39.050898043888886,974.4581,2.071927649031407,0.056025194246168426,2.1279528432775754
DENI,58849.12499999999,29.092134164722218,37.76210177638889,471.0808,2.202696964188046,0.07524491231909544,2.2779418765071413
DNZ1,58849.12499999999,29.04374140111111,37.77879908722222,537.9361,2.184720074973012,0.07240805122924036,2.257128126202252
DLUC,58849.12499999999,44.79747261694444,39.65510951861111,837.0657,2.1120181388649755,0.05138374028071708,2.1634018791456926
DIDI,58849.12499999999,27.268660950555553,37.372130087777784,79.2684,2.3061287455488935,0.09051323425859334,2.396641979807487
DINA,58849.12499999999,30.166335914722218,38.06946334166667,917.9084,2.0870685303993803,0.05944551990031025,2.1465140502996904
DIPK,58849.12499999999,34.19466429583333,35.536897014444435,155.2779,2.2839337496387877,0.08512448792008254,2.3690582375588702
DIVR,58849.12499999999,38.103883784444456,39.39431797416667,1087.6045,2.0475619582388096,0.05017251796820372,2.0977344762070134
DIV1,58849.12499999999,38.1194158,39.37187686555556,1072.8901,2.051334196747637,0.05055423876117767,2.1018884355088145
DIYB,58849.12499999999,40.18749263222221,37.954416830555566,773.6755,2.1257159416565155,0.05768736406973789,2.1834033057262534
EDIR,58849.12499999999,26.551010272777773,41.67671157416667,98.1979,2.3059276814651075,0.08129229648896584,2.3872199779540733
EKIZ,58849.12499999999,37.18794046555555,38.05883177277777,1325.0423,1.9873041959798976,0.045499706474538694,2.0328039024544364
EKZ1,58849.12499999999,37.18727368055555,38.05816525305557,1328.8748,1.9863595243382701,0.04540715465969368,2.031766678997964
ELAZ,58849.12499999999,39.256465076666665,38.64467205333333,1027.4191,2.0621219226381466,0.05127662929527581,2.1133985519334226
EMIR,58849.12499999999,31.14402582666667,39.02218994,1057.6719,2.052349928634644,0.054005506725343495,2.1063554353599874
EMR1,58849.12499999999,31.00006469416667,39.02029899583333,1012.6311,2.0637244611350614,0.055311959084385826,2.119036420219447
ERGN,58849.12499999999,39.75819282888889,38.26960403777777,987.8096,2.071295231438168,0.052019877423897305,2.123315108862065
ERZI,58849.12499999999,39.506070502222215,39.745670600833336,1238.3736,2.0093145510258776,0.04588830186871639,2.055202852894594
ERZ1,58849.12499999999,39.506118460277776,39.74583746277777,1238.256,2.009343623978366,0.04589048236410855,2.055234106342475
ERZ2,58849.12499999999,39.69703993472222,39.70785832305557,1437.6043,1.9599595684479045,0.04167267495306569,2.0016322434009703
ERZR,58849.12499999999,41.255465694166666,39.905608304444435,1915.0094,1.8458438078168016,0.0328291379122567,1.8786729457290583
ESKS,58849.12499999999,30.463611866944444,39.745686321944454,850.7521,2.1046099202709767,0.05863304033454715,2.163242960605524
FASA,58849.12499999999,37.484747905,41.045527145555546,40.9765,2.32100936907199,0.07371671695072766,2.3947260860227177
FEEK,58849.12499999999,35.912326426666674,37.81511508555555,600.2955,2.172100222830509,0.0663642287567843,2.2384644515872933
FETH,58849.12499999999,29.123773816111115,36.62620807055556,37.3266,2.3168611982900864,0.09640079667451366,2.4132619949646
FINI,58849.12499999999,30.146409626944447,36.3022174675,36.3572,2.3154665832773804,0.09329311244461508,2.4087596957219954
GEME,58849.12499999999,36.080844974722226,39.185131608333336,1214.7947,2.014204570361761,0.04778626449967712,2.061990834861438
GIRS,58849.12499999999,38.388156842777775,40.92262907055555,81.2765,2.3108655316051947,0.07178368488738576,2.3826492164925805
GODA,58849.12499999999,25.903453170555554,40.19715683,101.2589,2.303517614063893,0.08607411474869997,2.3895917288125927
GUMU,58849.12499999999,39.516172196666666,40.437072987777775,1248.5330000000001,2.004452541193837,0.04291913878384856,2.0473716799776853
GURU,58849.12499999999,37.30786893138889,38.7173515575,1357.4395,1.979631797452068,0.04476598904854485,2.024397786500613
GYUR,58849.12499999999,32.989468375555546,35.20124792638889,78.9818,2.3039783889299024,0.08935527622006637,2.3933336651499686
HAKK,58849.12499999999,43.73912818888889,37.57431627055556,1758.0393,1.8834617204067663,0.037577858703499355,1.9210395791102657
HAK1,58849.12499999999,43.734014227222225,37.57615342861111,1773.3105,1.8798544692353643,0.037238389767404775,1.917092859002769
HALP,58849.12499999999,34.18337524333333,37.44508057277777,1252.501,2.004151241523417,0.04836943622131137,2.0525206777447282
HARC,58849.12499999999,29.152760284444447,39.677743656944436,712.5283,2.1399519406805783,0.06308342205468584,2.203035362735264
HATA,58849.12499999999,36.152749505,36.2082752325,137.8892,2.2912994465379395,0.08234103009626842,2.373640476634208
HAT1,58849.12499999999,36.15582107722222,36.200018265833336,132.3239,2.292816802651967,0.08261153424531992,2.375428336897287
HEND,58849.12499999999,30.740748121944453,40.79499124416667,208.5337,2.2748143956102305,0.07585552921987067,2.3506699248301013
HINI,58849.12499999999,41.69578707194446,39.36878741805555,1742.6226,1.887046819684257,0.03674325111115033,1.9237900707954072
HORS,58849.12499999999,42.167326805277774,40.04164636111111,1592.3273,1.922561085344528,0.038486339395902076,1.9610474247404301
HYMN,58849.12499999999,32.49571417222222,39.43472457583333,1261.5391,2.0014469618709754,0.047777993927179595,2.049224955798155
HYM1,58849.12499999999,32.49525520388888,39.43708812694444,1240.3469,2.0066964678431036,0.04828922013592302,2.0549856879790265
IGIR,58849.12499999999,44.018251443611106,39.9292007475,884.2851,2.100786544382958,0.051885851374940166,2.1526723957578984
IGR1,58849.12499999999,44.05374837194446,39.926443471388886,881.0018,2.101580914045145,0.051836528315740364,2.1534174423608854
INEB,58849.12499999999,33.76282383555556,41.979091618611115,98.4458,2.303144167884595,0.07566565238709347,2.3788098202716887
INE1,58849.12499999999,33.762860835277785,41.97900028805556,98.1481,2.3032281641310215,0.07567614599824543,2.378904310129267
INE2,58849.12499999999,33.7677733075,41.976968200833326,48.0414,2.3173463834442503,0.07744436857856449,2.3947907520228147
INE3,58849.12499999999,33.76135067083333,41.97905228777778,62.6653,2.3132120299817647,0.07692985668566785,2.3901418866674327
IPSA,58849.12499999999,26.379780585277782,40.917532141944434,49.2362,2.319150488120215,0.08588778334536798,2.405038271465583
IPS1,58849.12499999999,26.385506192777786,40.92146472027778,66.4949,2.3142903814164444,0.08515774526644154,2.399448126682886
IPS2,58849.12499999999,26.38429158138889,40.921480122777766,64.30199999999999,2.3149078611405423,0.08524862655928798,2.4001564876998303
ISPT,58849.12499999999,30.56697776888889,37.78508936833333,1032.1306,2.0578795870128013,0.056141666402767916,2.114021253415569
ISTN,58849.12499999999,28.831634081666675,40.99096174777778,77.0522,2.3106762385520963,0.08231883342094475,2.392995071973041
IZMI,58849.12499999999,27.08182221361111,38.394807905,74.935,2.3092195697946596,0.08944485803963913,2.398664427834299
IZMT,58849.12499999999,29.95093363,40.80197816333333,326.0741,2.242095508961526,0.07229875297655819,2.3143942619380846
KAAS,58849.12499999999,29.643158024999998,36.19839326638888,54.4486,2.310493045995864,0.09515677007044507,2.405649816066309
KAMN,58849.12499999999,33.22027138,37.193227216111104,1057.0068,2.0522254642324835,0.05349282240277681,2.1057182866352604
KAPN,58849.12499999999,33.52692669833332,37.71466462083335,1039.5111,2.057328304741981,0.05396033236431755,2.1112886371062984
KAP1,58849.12499999999,33.528278693333334,37.71441642944445,1034.4914,2.0586001850985944,0.054106159470569994,2.1127063445691645
KARB,58849.12499999999,28.68277089388889,41.34711842138889,93.5867,2.3058663851823415,0.08161990166226973,2.387486286844611
KAYS,58849.12499999999,35.524460878055564,38.708372088888886,1138.7758,2.033338499224713,0.05032531138726674,2.08366381061198
KAY1,58849.12499999999,35.503070220833344,38.71366367277777,1117.9267,2.038574488481768,0.05086273982206719,2.089437228303835
KIKA,58849.12499999999,27.672205611944445,39.105991361111116,241.2092,2.2647926510216005,0.08083141953016339,2.345624070551764
KIRL,58849.12499999999,27.21794899055556,41.73812180611111,280.6111,2.2547137244348794,0.07423215372018042,2.32894587815506
KIRS,58849.12499999999,34.155487785,39.16462421666667,1063.64,2.0513229204874692,0.05193560060581201,2.1032585210932813
KIS1,58849.12499999999,34.163130851944445,39.14338055416667,1030.3007,2.0598057765991364,0.05283332320652838,2.1126390998056648
KKAL,58849.12499999999,33.51788380583333,39.84326516055556,794.5681,2.1201308807901946,0.05932016139237404,2.179451042182569
KLIS,58849.12499999999,37.112175696944455,36.70859996333333,681.9263,2.1478178810149404,0.06217590675225753,2.209993787767198
KLUU,58849.12499999999,33.065363481388886,39.07910221916667,1052.3153,2.0540778245181333,0.05294478476023869,2.107022609278372
KNY1,58849.12499999999,32.47635401138889,37.85939937194445,1084.6432,2.045795080767996,0.053511167357212425,2.0993062481252083
KNYA,58849.12499999999,32.5052336063889,38.02215187583333,1205.6816,2.0156030593729617,0.05002244831491957,2.0656255076878813
KRBK,58849.12499999999,32.675926788611115,41.23162331833333,435.5431,2.212660399415341,0.06752343483587728,2.280183834251218
KRS1,58849.12499999999,43.09344334444446,40.588451581111116,1811.739,1.8689322414876135,0.03299888810816058,1.9019311295957742
KRSU,58849.12499999999,30.69119350611111,41.099315603055565,48.766000000000005,2.3184683965115083,0.08084915664180976,2.399317553153318
KSTM,58849.12499999999,33.775505109444445,41.37123244527777,835.3959,2.1062795558518173,0.0550736846062455,2.161353240458063
KURU,58849.12499999999,32.717741548611116,41.84612521694444,74.4111,2.309791885188679,0.07724059501244693,2.387032480201126
KUTA,58849.12499999999,29.89885589194445,39.48086533138889,1076.3595,2.0468458131770997,0.05280788739351344,2.099653700570613
KUT1,58849.12499999999,30.033640875000003,39.39415354194443,1027.3987,2.059327855045714,0.05426786829882885,2.1135957233445426
LEFK,58849.12499999999,33.3529036286111,35.195046955277775,180.5037,2.2769192995797902,0.08462157667409344,2.361540876253884
MALY,58849.12499999999,38.21688926111111,38.33769465444445,985.8972,2.0727036404873367,0.05309979387477996,2.125803434362117
MARA,58849.12499999999,36.93113308638889,37.58075446861111,616.7711,2.1675009125956013,0.06517890339606525,2.2326798159916663
MAR1,58849.12499999999,36.86149860944445,37.593375224166664,734.3754,2.1364159757122834,0.06135492043518483,2.197770896147468
MARD,58849.12499999999,40.72828597444446,37.310500331111115,1064.1371,2.0500424791312097,0.04946632434579716,2.099508803477007
MGOS,58849.12499999999,33.90738760666667,35.14582049222222,49.7778,2.3121068901632893,0.09114074640920179,2.403247636572491
MIDY,58849.12499999999,41.357400975555564,37.41739928138889,977.7109,2.071628619107267,0.051902674949234215,2.123531294056501
MALZ,58849.12499999999,38.216889251944444,38.337694571388894,985.9102,2.0727002964993835,0.053099445983579435,2.125799742482963
MLZ1,58849.12499999999,42.540571397777775,39.145901173611115,1571.7675,1.9281072660150385,0.039975405381390265,1.9680826713964288
MRSI,58849.12499999999,34.60259238861112,36.7810000175,40.4961,2.3204228164109155,0.0892514071547041,2.4096742235656197
MUGL,58849.12499999999,28.36443998138889,37.21635825111112,713.6718,2.1368114260775823,0.0646750840620502,2.2014865101396324
MUG1,58849.12499999999,28.355676189166672,37.21429318861111,693.2688,2.1420729234103066,0.06538959954324226,2.207462522953549
MURA,58849.12499999999,43.763118974166666,38.990099946944454,1736.3481,1.8884325655331793,0.036349213004404385,1.9247817785375836
MUR1,58849.12499999999,43.762565616111104,38.9919318175,1734.0357,1.8889815507366559,0.03639096924069041,1.9253725199773464
MUUS,58849.12499999999,41.50216087083333,38.79323737805555,1287.6836,1.9971397225230223,0.0464695467217455,2.043609269244768
MUS1,58849.12499999999,41.499188175,38.74353990777778,1379.6336,1.974182853648242,0.0441641114719512,2.0183469651201933
NAHA,58849.12499999999,31.33208772944445,40.173303517222216,705.515,2.1422892093312758,0.0616964882436885,2.2039856975749643
NEVS,58849.12499999999,34.70294570166667,38.61656502194445,1292.4533,1.9946754179068458,0.046481092464320896,2.0411565103711666
NEV1,58849.12499999999,34.710771300833336,38.63146202638889,1234.5227,2.0090172828421373,0.04789645488099242,2.05691373772313
NIGD,58849.12499999999,34.67943657888889,37.95876982944445,1252.3261,2.0044279985716495,0.04801683890900038,2.05244483748065
NSYB,58849.12499999999,41.21726320194445,37.067020677222224,506.7374,2.1933667329805755,0.06549562212336194,2.2588623551039375
NSY1,58849.12499999999,41.216107820555564,37.07872594583332,493.0643,2.1970342226471367,0.06594982415828404,2.2629840468054208
ONIY,58849.12499999999,36.253857278333335,37.10219246777777,127.1919,2.2984031985304387,0.08280464265021976,2.3812078411806583
OZAL,58849.12499999999,43.98867900555555,38.65731246055555,2037.2506,1.8183335028827015,0.031172691850021094,1.8495061947327225
POSF,58849.12499999999,42.72755347972223,41.509056945277784,1566.9899,1.9251007019303152,0.036211052131544734,1.9613117540618599
